Row ID,Establishment ID,Inspection ID,Company/Franchise,Name,Type,Address,Lat,Long,Status,Minimum inspections per year,Infraction details,Inspection date,Severity,Action,Court outcome,Amount fined
1,1222579,104063869,SAI-LILA KHAMAN DHOKLA HOUSE,SAI-LILA KHAMAN DHOKLA HOUSE,Food Take Out,870 MARKHAM RD,43.76797956,-79.22902912,Pass,2,,2017-10-04,,,,
7,1222807,104018926,PHO BO TO,PHO BO TO,Restaurant,1635 LAWRENCE AVE W,43.70463403,-79.49223584,Pass,2,,2017-07-25,,,,
11,1223056,104022608,Pizza Pizza,PIZZA PIZZA,Restaurant,606 BROWNS LINE,43.6053117,-79.54729272,Pass,2,,2017-07-31,,,,
15,9000004,104239519,PAPINO'S PIZZA,PAPINO'S PIZZA,Food Take Out,1788 JANE ST,43.70630385,-79.505023,Pass,2,Operator fail to properly maintain rooms,2018-06-11,M - Minor,Notice to Comply,,
17,9000026,104083633,2-4-1 PIZZA,2-4-1 PIZZA,Food Take Out,2372 EGLINTON AVE E,43.73203707,-79.27101926,Conditional Pass,2,Fail to provide required illumination during all hours of operation O. Reg  562/90 Sec. 13,2017-10-31,M - Minor,Notice to Comply,,
26,9000031,103998316,2-4-1 PIZZA,2-4-1 PIZZA,Food Take Out,759 JANE ST,43.67153386,-79.493345,Pass,2,,2017-06-20,,,,
30,9000046,103995036,2-4-1 PIZZA,2-4-1 PIZZA,Food Take Out,1468 QUEEN ST W,43.640587,-79.436646,Pass,2,Operator fail to properly wash surfaces in rooms,2017-06-20,M - Minor,Notice to Comply,,
33,9000072,103966218,Tim Hortons,TIM HORTONS,Cafeteria,250 BLOOR ST E,43.67203147,-79.38092832,Pass,2,Operator fail to properly maintain equipment(NON-FOOD),2017-05-10,M - Minor,Notice to Comply,,
39,9000074,103980952,OMNI KING EDWARD -BANQUET KITCHEN,OMNI KING EDWARD -BANQUET KITCHEN,Commissary,37 KING ST E,43.649384,-79.3762,Pass,2,Operator fail to properly maintain rooms,2017-06-01,M - Minor,Notice to Comply,,
46,9000097,103964644,30 UP CLUB,30 UP CLUB,Private Club,22 DORCHESTER AVE,43.62153157,-79.51790322,Pass,2,Operator fail to properly wash surfaces in rooms,2017-05-09,M - Minor,Notice to Comply,,
50,9000107,104006268,STUDIO 123,STUDIO 123,Child Care - Catered,401 RICHMOND ST W,43.647663,-79.394745,Pass,2,,2017-07-05,,,,
53,9000109,104038625,BRASS TAPS PIZZA PUB,BRASS TAPS PIZZA PUB,Restaurant,493 DANFORTH AVE,43.67781725,-79.3492437,Pass,2,,2017-08-23,,,,
60,9000116,104029654,521 CAFE,521 CAFE,Restaurant,521 DANFORTH AVE,43.6780358,-79.34820993,Pass,2,Operator fail to properly maintain rooms,2017-08-10,M - Minor,Notice to Comply,,
63,9000122,104149129,7 DAY CONVENIENCE,7 DAY CONVENIENCE,Food Store (Convenience / Variety),2480 GERRARD ST E,43.68747143,-79.28452538,Pass,1,,2018-02-14,,,,
64,9000123,104085753,7 DAY CONVENIENCE,7 DAY CONVENIENCE,Food Store (Convenience / Variety),3228 WESTON RD,43.73890682,-79.53973272,Pass,1,Operator fail to provide proper equipment,2017-11-02,M - Minor,Notice to Comply,,
65,9000144,104019403,7 WEST CAFE,7 WEST CAFE,Restaurant,7 CHARLES ST W,43.66849727,-79.38669492,Pass,3,Operator fail to properly maintain rooms,2017-07-26,M - Minor,Notice to Comply,,
84,9000174,104018560,A & A CHILD CARE CENTRE,A & A CHILD CARE CENTRE,Child Care - Food Preparation,3380 MIDLAND AVE,43.80930265,-79.29034654,Pass,3,,2017-08-01,,,,
90,9000191,104115737,METRO DISTRIBUTION CENTRE,METRO DISTRIBUTION CENTRE,Food Depot,170 THE WEST MALL,43.625088,-79.56145,Pass,1,,2017-12-22,,,,
91,9000193,104053190,METRO DISTRIBUTION CENTRE,METRO DISTRIBUTION CENTRE,Food Depot,25 VICKERS RD,43.62796433,-79.55230439,Pass,1,,2017-09-14,,,,
92,9000198,103991582,A & W,A & W,Food Court Vendor,250 THE EAST MALL,43.632793,-79.55468,Pass,2,Operator fail to provide proper equipment,2017-06-15,M - Minor,Notice to Comply,,
96,9000200,104050194,A & W,A & W,Restaurant,2300 YONGE ST,43.70715757,-79.39908353,Conditional Pass,2,Operator fail to properly maintain equipment,2017-09-11,S - Significant,Notice to Comply,,
103,9000224,104330364,A PLACE TO PLAY CO-OP NURSERY,A PLACE TO PLAY CO-OP NURSERY,Child Care - Catered,680 ANNETTE ST,43.65934667,-79.48501758,Pass,2,,2018-10-23,,,,
104,9000239,104019732,A.C. RANCH CAFFE,A.C. RANCH CAFFE,Restaurant,1220 ST CLAIR AVE W,43.67785117,-79.4447766,Pass,2,,2017-07-26,,,,
107,9000247,104185439,A.R.K. MARKET,A.R.K. MARKET,Food Store (Convenience / Variety),31 ST DENNIS DR,43.71858078,-79.32958825,Conditional Pass,2,Operator fail to ensure food is not contaminated/adulterated,2018-03-27,C - Crucial,Notice to Comply,,
114,9000251,104210309,A-1 DISCOUNT VARIETY,A-1 DISCOUNT VARIETY,Food Store (Convenience / Variety),2412 LAKE SHORE BLVD W,43.61471418,-79.48910881,Pass,1,,2018-05-02,,,,
115,9000253,104233008,AL-BARAK VARIETY STORE,AL-BARAK VARIETY STORE,Food Store (Convenience / Variety),1880 WESTON RD,43.69975737,-79.51578362,Conditional Pass,2,Operator fail to properly maintain rooms,2018-06-01,M - Minor,Notice to Comply,,
118,9000261,104034619,ABACUS DAY CARE CENTRE,ABACUS DAY CARE CENTRE,Child Care - Food Preparation,20 CHICHESTER PL,43.77732093,-79.32177017,Pass,3,,2017-08-22,,,,
126,9000263,104040729,ABBIRAMI CATERING & TAKE-OUT,ABBIRAMI CATERING & TAKE-OUT,Food Take Out,2619 EGLINTON AVE E,43.73528554,-79.25231205,Pass,3,Operator fail to properly wash surfaces in rooms,2017-08-09,M - Minor,Notice to Comply,,
139,9000266,104003853,ABC DAY NURSERY,ABC DAY NURSERY,Child Care - Food Preparation,145 MARLEE AVE,43.70326335,-79.44103039,Pass,3,,2017-07-04,,,,
144,9000280,104063383,ACADEMY PLACE TUCK SHOP,ACADEMY PLACE TUCK SHOP,Food Store (Convenience / Variety),2101 ISLINGTON AVE,43.70368803,-79.54888753,Pass,1,Operator fail to properly wash surfaces in rooms,2017-09-27,M - Minor,Notice to Comply,,
145,9000287,103874369,ACE BAKERY,ACE BAKERY,Bakery,1 HAFIS RD,43.70590295,-79.46997506,Conditional Pass,1,Operator fail to provide adequate pest control,2017-05-26,S - Significant,Notice to Comply,,
147,9000306,103980219,ACROSS BOUNDARIES,ACROSS BOUNDARIES,Serving Kitchen,51 CLARKSON AVE,43.69704478,-79.46287305,Pass,2,,2017-06-01,,,,
149,9000316,104091006,ADATH ISRAEL CONGREGATION,ADATH ISRAEL CONGREGATION,Serving Kitchen,37 SOUTHBOURNE AVE,43.73855386,-79.43122536,Pass,2,Fail to Ensure the Presence of the Holder of a Valid Food Handler's Certificate. Muncipal Code Chapter 545-157(17)(a),2017-11-13,NA - Not Applicable,Notice to Comply,,
160,9000320,103977837,ADEGA RESTAURANT,ADEGA RESTAURANT,Restaurant,33 ELM ST,43.65733261,-79.38327119,Pass,3,FAIL TO STORE FOOD ON RACKS OR SHELVES O. REG  562/90 SEC. 23,2017-05-29,S - Significant,Corrected During Inspection,,
174,9000325,104026249,RADISSON ADMIRAL HOTEL - MAIN KITCHEN,RADISSON ADMIRAL HOTEL - MAIN KITCHEN,Banquet Facility,249 QUEENS QUAY  W,43.63882,-79.385605,Pass,3,,2017-08-04,,,,
181,9000350,103989431,AGINCOURT MONTESSORI SCHOOL,AGINCOURT MONTESSORI SCHOOL,Child Care - Catered,2575 MIDLAND AVE,43.78645188,-79.27870739,Pass,2,,2017-06-13,,,,
184,9000353,104016087,AGINCOURT TEMPLE CHILD CARE,AGINCOURT TEMPLE CHILD CARE,Child Care - Food Preparation,3080 BIRCHMOUNT RD,43.80344988,-79.30939038,Pass,3,,2017-07-21,,,,
193,9000359,103952271,AHMAD GROCERY,AHMAD GROCERY,Butcher Shop,1616 GERRARD ST E,43.67304181,-79.31980843,Pass,2,,2017-04-20,,,,
199,9000361,103980974,AHMUTHA SURABI,AHMUTHA SURABI,Food Take Out,2847 LAWRENCE AVE E,43.75347184,-79.25440157,Pass,3,Operator fail to properly wash equipment,2017-06-01,M - Minor,Notice to Comply,,
210,9000372,103946172,PINNACLE CATERERS NORTH,PINNACLE CATERERS NORTH,Commissary,40 BAY ST,43.64407,-79.37843,Pass,2,,2017-04-07,,,,
215,9000373,103945986,ST PATTIES - STAND #7,ST PATTIES - STAND #7,Food Take Out,40 BAY ST,43.64407,-79.37843,Pass,2,,2017-04-07,,,,
220,9000375,103946190,Pizza Pizza,SCOTIABANK ARENA   STAND #4 - PIZZA PIZZA,Food Take Out,40 BAY ST,43.64407,-79.37843,Pass,2,,2017-04-07,,,,
225,9000377,103946192,SCOTIABANK ARENA  FOOD JUNCTION - #5,SCOTIABANK ARENA  FOOD JUNCTION - #5,Food Take Out,40 BAY ST,43.64407,-79.37843,Pass,2,Operator fail to properly wash surfaces in rooms,2017-04-07,M - Minor,Notice to Comply,,
230,9000378,103945922,Tim Hortons,SCOTIABANK ARENA   STAND # 2 - TIM HORTONS,Food Take Out,40 BAY ST,43.64407,-79.37843,Pass,2,,2017-04-07,,,,
234,9000379,103945925,PINNACLE CATERS SOUTH,PINNACLE CATERS SOUTH,Restaurant,40 BAY ST,43.64407,-79.37843,Pass,2,,2017-04-07,,,,
239,9000381,104110974,AIR-O-DOWN CHILD CARE CENTRE,AIR-O-DOWN CHILD CARE CENTRE,Child Care - Catered,7 HAWKSDALE RD,43.73040434,-79.47966088,Pass,2,Operator fail to properly wash equipment,2017-12-14,M - Minor,Notice to Comply,,
242,9000385,104021834,AJI SAI RESTAURANT,AJI SAI RESTAURANT,Restaurant,783 DANFORTH AVE,43.67935196,-79.34165913,Pass,2,,2017-07-28,,,,
248,9000418,103973036,ALBANY CLUB OF TORONTO,ALBANY CLUB OF TORONTO,Private Club,91 KING ST E,43.64967352,-79.374923,Pass,2,OPERATOR FAIL TO ENSURE COVER WILL PREVENT CONTAMINATION OR ADULTERATION O. REG  562/90 SEC. 59(C)(II),2017-05-24,S - Significant,Corrected During Inspection,,
253,9000420,103970469,ALBATROS PUB,ALBATROS PUB,Restaurant,3057 LAKE SHORE BLVD W,43.59950865,-79.50998891,Pass,2,,2017-05-16,,,,
257,9000424,104048248,ALBERTO'S SPORTS BAR & GRILL,ALBERTO'S SPORTS BAR & GRILL,Restaurant,2560 FINCH AVE W,43.74894187,-79.56096692,Pass,2,,2017-09-07,,,,
262,9000429,104093967,ALBION BAKERY SUPPLIES,ALBION BAKERY SUPPLIES,Food Depot,25 CONNELL CRT,43.61361203,-79.51903308,Pass,1,,2017-11-16,,,,
263,9000431,104076949,ALBION CHILD CARE CENTRE,ALBION CHILD CARE CENTRE,Child Care - Food Preparation,1545 ALBION RD,43.74025409,-79.58642918,Pass,2,,2017-10-20,,,,
266,9000444,104128870,ALDERBUDS CHILD CARE CENTRE,ALDERBUDS CHILD CARE CENTRE,Child Care - Catered,399 THE WEST MALL,43.6435,-79.56609,Pass,2,,2018-01-16,,,,
269,9000446,104089002,ALDERWOOD ACTION CHILD CARE,ALDERWOOD ACTION CHILD CARE,Child Care - Catered,544 HORNER AVE,43.60161044,-79.54816511,Pass,2,,2017-11-08,,,,
271,9000458,103967050,ALEX REI DOS LEITOES,ALEX REI DOS LEITOES,Food Take Out,219 OSSINGTON AVE,43.648884,-79.42048,Pass,3,,2017-05-11,,,,
277,9000461,103900227,ALEXANDRA PARK DAY CARE CENTRE,ALEXANDRA PARK DAY CARE CENTRE,Child Care - Food Preparation,75 AUGUSTA SQ,43.65012601,-79.39999653,Pass,2,,2017-05-02,,,,
280,9000469,104096824,ALEX FARM PRODUCTS,ALEX FARM PRODUCTS,Food Store (Convenience / Variety),93 FRONT ST E,43.64905,-79.37177,Pass,3,,2017-12-28,,,,
284,9000485,103960866,ALI'S WEST INDIAN ROTI SHOP,ALI'S WEST INDIAN ROTI SHOP,Restaurant,1446 QUEEN ST W,43.64073,-79.43591,Pass,3,Operator fail to properly wash surfaces in rooms,2017-05-03,M - Minor,Notice to Comply,,
292,9000487,104002563,AL KARAM SWEETS,AL KARAM SWEETS,Food Processing Plant,3001 MARKHAM RD,43.82859643,-79.24913198,Pass,2,,2017-06-30,,,,
296,9000504,104081081,CHURCH OF THE INCARNATION,CHURCH OF THE INCARNATION,Banquet Facility,15 CLAIRTRELL RD,43.7674918,-79.39008542,Pass,1,,2018-06-01,,,,
297,9000515,104123073,ALLEN'S SCOTTISH BUTCHER,ALLEN'S SCOTTISH BUTCHER,Butcher Shop,2151 WESTON RD,43.7029639,-79.52460362,Pass,2,FOOD PREMISE NOT MAINTAINED WITH FOOD HANDLING ROOM IN SANITARY CONDITION - SEC. 7(1)(E),2018-11-09,M - Minor,Notice to Comply,,
299,9000516,104054919,ALLENBY DAY CARE,ALLENBY DAY CARE,Child Care - Catered,391 ST CLEMENTS AVE,43.70944423,-79.41279098,Pass,2,,2017-09-18,,,,
303,9000539,104253788,ALPHA VARIETY,ALPHA VARIETY,Food Store (Convenience / Variety),603 LOGAN AVE,43.67039884,-79.34631931,Pass,1,Operator fail to properly maintain rooms,2018-06-29,M - Minor,Notice to Comply,,
304,9000583,103791255,AMBER EUROPEAN RESTAURANT,AMBER EUROPEAN RESTAURANT,Restaurant,2372 BLOOR ST W,43.65008792,-79.4820664,Pass,2,,2017-06-20,,,,
307,9000596,104063097,AMAZING DONUTS,AMAZING DONUTS,Bakery,3772 BATHURST ST,43.73792029,-79.43461876,Pass,2,Operator fail to properly maintain rooms,2018-01-31,M - Minor,Notice to Comply,,
313,9000599,103718770,ARMOUR HEIGHTS CHILDCARE PROGRAM,ARMOUR HEIGHTS CHILDCARE PROGRAM,Child Care - Catered,148 WILSON AVE,43.74091864,-79.41952554,Pass,1,,2017-04-20,,,,
315,9000604,104159548,AMTU DISCOUNT & CONVENIENCE,AMTU DISCOUNT & CONVENIENCE,Food Store (Convenience / Variety),988 KINGSTON RD,43.6808656,-79.28637448,Pass,1,,2018-02-27,,,,
316,9000607,104226015,THE GRANGE LOTTERY,THE GRANGE LOTTERY,Food Store (Convenience / Variety),109 MC CAUL ST,43.65413,-79.3911,Pass,1,,2018-05-24,,,,
317,9000614,104021667,ANATOLIA TURKISH CUISINE,ANATOLIA TURKISH CUISINE,Restaurant,5112 DUNDAS ST W,43.64470821,-79.53298335,Pass,2,,2017-07-28,,,,
321,9000615,103975397,ANCASTER CHILD CARE CENTRE,ANCASTER CHILD CARE CENTRE,Child Care - Catered,45 ANCASTER RD,43.73303442,-79.46601442,Pass,3,Operator fail to properly wash surfaces in rooms,2017-05-25,M - Minor,Notice to Comply,,
328,9000643,103973821,ANH DAO RESTAURANT,ANH DAO RESTAURANT,Restaurant,383 SPADINA AVE,43.65634,-79.39914,Pass,3,,2017-05-23,,,,
336,9000646,104002436,MCLOUGHLIN SCHOOLS,MCLOUGHLIN SCHOOLS,Child Care - Catered,80 ROXBOROUGH ST W,43.67910841,-79.38522853,Pass,2,,2017-09-20,,,,
339,9000650,103989792,ANNA PURNA VEGETARIAN RESTAURANT,ANNA PURNA VEGETARIAN RESTAURANT,Restaurant,1085 BATHURST ST,43.67275,-79.41409,Pass,3,Operator fail to properly maintain rooms,2017-06-13,M - Minor,Notice to Comply,,
349,9000651,104042111,ANNAPURNA'S MITHAI SHOPPE,ANNAPURNA'S MITHAI SHOPPE,Bakery,1544 WARDEN AVE,43.76318728,-79.30150915,Pass,2,FAIL TO HAVE TEST REAGENT AVAILABLE AT  PLACE OF SANITIZATION O. REG  562/90 SEC. 75(2),2017-08-29,S - Significant,Corrected During Inspection,,
360,9000671,103826671,ANNEX MART,ANNEX MART,Food Store (Convenience / Variety),535 BLOOR ST W,43.66531,-79.40973,Pass,1,Operator fail to properly wash surfaces in rooms,2017-12-27,M - Minor,Notice to Comply,,
363,9000684,104014544,ANTICA VILLAGE DAY CARE,ANTICA VILLAGE DAY CARE,Child Care - Food Preparation,360 HULLMAR DR,43.77356355,-79.52332414,Pass,2,,2017-07-19,,,,
364,9000698,103950745,APACHE BURGER,APACHE BURGER,Restaurant,5236 DUNDAS ST W,43.63932024,-79.53784146,Pass,2,,2017-04-18,,,,
366,9000706,103989681,APOLLO ELEVEN RESTAURANT,APOLLO ELEVEN RESTAURANT,Restaurant,1093 BATHURST ST,43.672977,-79.414185,Pass,2,Operator fail to properly maintain rooms,2017-06-13,M - Minor,Notice to Comply,,
374,9000720,104141057,APPLEWOOD HOMESTEAD,APPLEWOOD HOMESTEAD,Banquet Facility,450 THE WEST MALL,43.647984,-79.56818,Pass,1,,2018-01-30,,,,
375,9000728,104051884,ARAMARK CANADA LTD.,ARAMARK CANADA LTD.,Food Depot,105 THE EAST MALL,43.621582,-79.54984,Pass,1,,2017-09-13,,,,
376,9000735,103963499,ARBOR GLEN COMMUNITY CHILDCARE,ARBOR GLEN COMMUNITY CHILDCARE,Child Care - Catered,55 FRESHMEADOW DR,43.809495,-79.35571268,Pass,3,,2017-05-08,,,,
381,9000747,103991445,ARCHBISHOP ROMERO SCHOOL,ARCHBISHOP ROMERO SCHOOL,Secondary School Food Services,99 HUMBER BLVD,43.68034146,-79.48080008,Pass,1,,2017-06-19,,,,
382,9000752,103988872,ARGONAUT ROWING CLUB IN TRUST,ARGONAUT ROWING CLUB IN TRUST,Private Club,1225 LAKE SHORE BLVD W,43.63241654,-79.43598184,Pass,1,,2017-06-22,,,,
383,9000761,104025606,ARIZONA B-BAR & GRILL,ARIZONA B-BAR & GRILL,Restaurant,215 CARLINGVIEW DR,43.6834672,-79.59245663,Pass,3,,2017-08-03,,,,
396,9000771,104082744,ARMENIAN KITCHEN,ARMENIAN KITCHEN,Restaurant,1646 VICTORIA PARK AVE,43.73093111,-79.30584849,Pass,3,,2017-10-31,,,,
400,9000772,104082745,ARMENIAN VILLAGE BAKERY,ARMENIAN VILLAGE BAKERY,Bakery,1646 VICTORIA PARK AVE,43.73093111,-79.30584849,Pass,2,,2017-10-31,,,,
404,9000805,104011773,ASIA GARDEN RESTAURANT,ASIA GARDEN RESTAURANT,Restaurant,2648 ISLINGTON AVE,43.73815545,-79.5663444,Pass,2,FAIL TO CLEAN WASHBASINS AS OFTEN AS NECESSARY O. REG  562/90 SEC. 68(4),2017-07-14,S - Significant,Corrected During Inspection,,
412,9000810,103954428,ASIAN FOOD CENTRE,ASIAN FOOD CENTRE,Supermarket,10 WESTMORE DR,43.74226529,-79.60456566,Pass,2,,2017-04-24,,,,
427,9000813,104077128,ASIAN GOURMET,ASIAN GOURMET,Food Court Vendor,1530 ALBION RD,43.74177113,-79.58460544,Pass,2,,2017-10-20,,,,
430,9000836,104043801,ASTORIA,ASTORIA,Restaurant,390 DANFORTH AVE,43.67783846,-79.35182815,Pass,3,,2017-08-30,,,,
435,9000848,104038627,ATHENS PASTRIES,ATHENS PASTRIES,Restaurant,509 DANFORTH AVE,43.67795448,-79.34882801,Pass,2,,2017-08-23,,,,
438,9000851,104014474,ATHENS RESTAURANT & TAVERN,ATHENS RESTAURANT & TAVERN,Restaurant,707 DANFORTH AVE,43.67897213,-79.34345273,Pass,3,Operator fail to properly maintain rooms,2017-07-19,M - Minor,Notice to Comply,,
445,9000853,103950438,ATIN ITO COMPANY,ATIN ITO COMPANY,Food Take Out,182 CARLTON ST,43.663456,-79.37241,Pass,1,Operator fail to properly maintain rooms,2017-04-18,M - Minor,Notice to Comply,,
448,9000881,104014380,AUNTIES & UNCLES,AUNTIES & UNCLES,Restaurant,74 LIPPINCOTT ST,43.65686,-79.40654,Pass,3,,2017-07-19,,,,
454,9000888,103926818,AVALON CHILDREN'S MONTESS,AVALON CHILDREN'S MONTESS,Child Care - Catered,31 WOOD GLEN RD,43.68405078,-79.27550398,Pass,2,,2017-04-26,,,,
458,9000891,104000893,THE AVENUE DINER,THE AVENUE DINER,Restaurant,222 DAVENPORT RD,43.67503,-79.39689,Pass,2,,2017-06-28,,,,
469,9000897,103956073,AVENUE ROAD CHILDCARE CENTRE,AVENUE ROAD CHILDCARE CENTRE,Child Care - Food Preparation,1498 AVENUE RD,43.72205828,-79.41583347,Pass,3,,2017-04-27,,,,
475,9000917,104044642,B & B FISH & CHIPS,B & B FISH & CHIPS,Food Take Out,1116 QUEEN ST E,43.66229357,-79.33542,Pass,2,,2017-08-31,,,,
479,9000935,104353537,B.A. GROCERY,B.A. GROCERY,Food Store (Convenience / Variety),140 SACKVILLE ST,43.657574,-79.36198,Pass,1,,2018-11-27,,,,
480,9000939,104044146,BROOKFIELD MOTHERCRAFT PLACE,BROOKFIELD MOTHERCRAFT PLACE,Child Care - Food Preparation,10 FRONT ST W,43.64694339,-79.37725749,Pass,3,,2017-08-31,,,,
486,9000962,104067398,BACCHUS ROTI SHOP,BACCHUS ROTI SHOP,Restaurant,1376 QUEEN ST W,43.641293,-79.433235,Pass,2,Food handler fail to wear headgear,2017-10-04,M - Minor,Notice to Comply,,
489,9000963,103965104,BACK ALLEY BAR & GRILL,BACK ALLEY BAR & GRILL,Restaurant,33 SAMOR RD,43.71735884,-79.45824723,Pass,2,FAIL TO PROVIDE SOAP OR DETERGENT IN FOOD PREPARATION AREA O. REG  562/90 SEC. 20(1)(C),2017-05-16,S - Significant,Corrected During Inspection,,
517,9000980,104148316,BAGEL PLUS,BAGEL PLUS,Restaurant,634 SHEPPARD AVE W,43.75533554,-79.44086296,Pass,2,FAIL TO STORE FOOD ON PALLETS O. REG  562/90 SEC. 23,2018-02-09,S - Significant,Corrected During Inspection,,
534,9000990,104063360,THE BAGEL HOUSE,THE BAGEL HOUSE,Restaurant,1548 BAYVIEW AVE,43.70483326,-79.37500159,Pass,2,Operator fail to properly wash surfaces in rooms,2017-09-28,M - Minor,Notice to Comply,,
538,9000992,103992668,WITHROW CHILDCARE CENTRE,WITHROW CHILDCARE CENTRE,Child Care - Catered,25 BAIN AVE,43.67046905,-79.35213289,Pass,2,,2017-06-15,,,,
542,9000994,103952290,BAIRRADA CHURRASQUEIRA,BAIRRADA CHURRASQUEIRA,Restaurant,1002 COLLEGE ST,43.65322,-79.42865,Pass,2,Operator fail to properly wash equipment,2017-04-20,M - Minor,Notice to Comply,,
547,9001004,104116110,BAKERS BEST BAKERY,BAKERS BEST BAKERY,Bakery,4915 STEELES AVE E,43.82715592,-79.29117137,Pass,2,Operator fail to properly wash equipment,2017-12-27,M - Minor,Closure Order,,
549,9001036,104192416,FIERRA FOODS/BAKERY DELUXE,FIERRA FOODS/BAKERY DELUXE,Bakery,50 MARMORA ST,43.7194925,-79.52594418,Pass,2,,2018-04-09,,,,
550,9001041,104091681,BAKERY ON THE GO,BAKERY ON THE GO,Food Take Out,701 WARDEN AVE,43.71160562,-79.27947292,Pass,2,,2017-11-21,,,,
557,9001053,104064702,BALDWIN NATURALS,BALDWIN NATURALS,Food Store (Convenience / Variety),16 BALDWIN ST,43.65623,-79.39295,Pass,1,,2017-10-02,,,,
559,9001061,103993976,BALMY BEACH CLUB,BALMY BEACH CLUB,Private Club,2 BEECH AVE,43.670822,-79.28683,Pass,2,FAIL TO PROVIDE SOAP OR DETERGENT IN FOOD PREPARATION AREA O. REG  562/90 SEC. 20(1)(C),2017-06-19,S - Significant,Corrected During Inspection,,
566,9001062,104025199,BALMY BEACH COMMUNITY DAY CARE CENTRE,BALMY BEACH COMMUNITY DAY CARE CENTRE,Child Care - Food Preparation,14 PINE AVE,43.67644451,-79.28983015,Pass,2,,2017-08-03,,,,
570,9001077,104008663,BANGKOK GARDENS,BANGKOK GARDENS,Restaurant,18 ELM ST,43.65789523,-79.38274646,Pass,3,STORE UTENSILS IN MANNER NOT PREVENTING CONTAMINATION O. REG  562/90 SEC. 81,2017-07-11,S - Significant,Corrected During Inspection,,
584,9001088,104001783,BMO Financial Group,BMO Financial Group,Other Educational Facility Food Services,3550 PHARMACY AVE,43.8156291,-79.3376477,Pass,2,Operator fail to properly maintain mechanical washer,2017-06-29,S - Significant,Corrected During Inspection,,
588,9001094,104347280,THE CAFE / THE BEAN,THE CAFE / THE BEAN,Cafeteria - Public Access,44 KING ST W,43.64867,-79.38019,Pass,2,,2018-11-16,,,,
590,9001103,103982995,BANTING & BEST CHILD CARE CENTRE,BANTING & BEST CHILD CARE CENTRE,Child Care - Catered,380 GOLDHAWK TRL,43.8266729,-79.28015374,Pass,2,,2017-06-08,,,,
594,9001121,103970956,BARBERIAN'S STEAK HOUSE,BARBERIAN'S STEAK HOUSE,Restaurant,7 ELM ST,43.65761211,-79.38216154,Pass,3,FAIL TO STORE FOOD ON RACKS OR SHELVES O. REG  562/90 SEC. 23,2017-05-17,S - Significant,Corrected During Inspection,,
609,9001126,104028386,BARDI'S STEAK HOUSE TAVERN,BARDI'S STEAK HOUSE TAVERN,Restaurant,56 YORK ST,43.646103,-79.38296,Pass,3,Operator fail to properly wash surfaces in rooms,2017-08-10,M - Minor,Notice to Comply,,
617,9001150,104057878,Starbucks,STARBUCKS,Restaurant,1088 YONGE ST,43.67799699,-79.39025717,Pass,1,,2017-09-20,,,,
621,9001163,103954756,BARRIO FIESTA,BARRIO FIESTA,Food Take Out,19 LAPSLEY RD,43.79560541,-79.22676594,Conditional Pass,2,Operator fail to maintain hazardous food(s) at -18C (0F) or colder,2017-04-24,S - Significant,Notice to Comply,,
637,9001165,104013481,VERMONT SQUARE,VERMONT SQUARE,Nursing Home / Home for the Aged,914 BATHURST ST,43.66831541,-79.41280409,Pass,3,Operator fail to properly maintain equipment(NON-FOOD),2017-07-18,M - Minor,Notice to Comply,,
646,9001193,103945243,Baskin Robbins,BASKIN-ROBBINS,Ice Cream / Yogurt Vendors,500 REXDALE BLVD,43.72038522,-79.60006398,Pass,2,,2017-11-15,,,,
648,9001195,104002805,Baskin Robbins,BASKIN-ROBBINS,Food Take Out,1001 SANDHURST CRCL,43.80926626,-79.26368032,Pass,2,,2017-06-30,,,,
653,9001230,104233898,BATHURST & BLOOR I.D.A.,BATHURST & BLOOR I.D.A.,Food Store (Convenience / Variety),800 BATHURST ST,43.665527,-79.411476,Pass,1,,2018-06-04,,,,
654,9001241,104040430,BAYCREST - KITCHEN,BAYCREST - KITCHEN,Nursing Home / Home for the Aged,3560 BATHURST ST,43.7300642,-79.43414656,Pass,3,,2017-08-24,,,,
668,9001242,103948510,BAYCREST CHILD CARE CENTRE,BAYCREST CHILD CARE CENTRE,Child Care - Catered,145 BAYCREST AVE,43.72661437,-79.44425476,Pass,2,,2017-04-12,,,,
670,9001245,103955916,BAYCREST TERRACE,BAYCREST TERRACE,Retirement Homes(Licensed),55 AMEER AVE,43.72875488,-79.44084109,Pass,3,,2017-04-26,,,,
681,9001252,104077677,BAYVIEW GARDENS DAY CARE CENTRE,BAYVIEW GARDENS DAY CARE CENTRE,Child Care - Food Preparation,3125 BAYVIEW AVE,43.78161567,-79.39063008,Pass,3,OPERATOR FAIL TO ENSURE CRACKED UTENSIL NOT USED IN FOOD HANDLING O. REG  562/90 SEC. 59(B),2017-10-23,S - Significant,Corrected During Inspection,,
684,9001261,104105555,BALMORAL CHEMISTS,BALMORAL CHEMISTS,Food Store (Convenience / Variety),1366 YONGE ST,43.68603864,-79.39359243,Pass,1,,2017-12-06,,,,
685,9001262,104002754,BEACH ARMS RESIDENCE,BEACH ARMS RESIDENCE,Retirement Homes(Licensed),505 KINGSTON RD,43.67725589,-79.30233885,Pass,3,Operator fail to properly maintain equipment(NON-FOOD),2017-06-30,M - Minor,Notice to Comply,,
697,9001274,103953861,BEACHES CO-OPERATIVE PLAYSCHOOL,BEACHES CO-OPERATIVE PLAYSCHOOL,Child Care - Catered,975 KINGSTON RD,43.68022177,-79.28656966,Pass,1,,2017-04-24,,,,
702,9001280,103989065,BEATTY BUDDIES DAYCARE,BEATTY BUDDIES DAYCARE,Child Care - Catered,55 WOODINGTON AVE,43.68602661,-79.32156885,Pass,2,,2017-06-12,,,,
706,9001303,104123411,BECKER'S MILK CO #1034,BECKER'S MILK CO #1034,Food Store (Convenience / Variety),305 PORT UNION RD,43.79009755,-79.14045018,Pass,1,,2018-01-11,,,,
707,9001346,104115188,BECKER'S,BECKER'S,Food Store (Convenience / Variety),2825 WESTON RD,43.72058987,-79.53713745,Pass,1,FAIL TO STORE FOOD ON RACKS OR SHELVES O. REG  562/90 SEC. 23,2017-12-21,S - Significant,Corrected During Inspection,,
708,9001350,103956881,BEDFORD ACADEMY,BEDFORD ACADEMY,Restaurant,36 PRINCE ARTHUR AVE,43.66949,-79.39737,Pass,2,,2017-04-26,,,,
716,9001354,104070753,BEECH BROS. LTD,BEECH BROS. LTD,Food Depot,23 CANMOTOR AVE,43.62214071,-79.51039166,Pass,1,Fail to Produce Most Recent Food Safety Inspection Report(s). Muncipal Code Chapter 545-157(E)(5),2017-10-11,NA - Not Applicable,Notice to Comply,,
718,9001368,103967578,BELGIAN CHOCOLATE SHOP,BELGIAN CHOCOLATE SHOP,Food Processing Plant,2455 QUEEN ST E,43.67330746,-79.28383548,Pass,2,OPERATOR FAIL TO ENSURE CRACKED UTENSIL NOT USED IN FOOD HANDLING O. REG  562/90 SEC. 59(B),2017-06-08,S - Significant,Corrected During Inspection,,
723,9001370,103998414,BELL CANADA,BELL CANADA,Cafeteria,100 BOROUGH DR,43.77313861,-79.25965046,Pass,2,,2017-06-27,,,,
728,9001372,103950466,BELL CANADA CAFETERIA,BELL CANADA CAFETERIA,Cafeteria,100 WYNFORD DR,43.7274147,-79.33177532,Pass,2,,2017-04-18,,,,
732,9001377,104359005,BELLAMY SMOKE & GIFT,BELLAMY SMOKE & GIFT,Food Store (Convenience / Variety),200 BELLAMY RD N,43.74685544,-79.23167832,Pass,1,Operate food premise - equipment not arranged to permit cleaning - Sec. 9,2018-10-26,M - Minor,Notice to Comply,,
733,9001381,103954061,BELLISSIMO PIZZA,BELLISSIMO PIZZA,Restaurant,160 THE ESPLANADE,43.648655,-79.368996,Pass,3,,2017-04-24,,,,
743,9001383,104027678,BELMONT HOUSE,BELMONT HOUSE,Retirement Homes(Licensed),55 BELMONT ST,43.67467957,-79.39096681,Pass,3,Operator fail to properly wash equipment,2017-08-08,M - Minor,Notice to Comply,,
750,9001395,103971622,BENDALE ACRES KITCHEN,BENDALE ACRES KITCHEN,Institutional Food Service,2920 LAWRENCE AVE E,43.75489511,-79.25215917,Pass,3,Operator fail to properly maintain equipment,2017-05-18,S - Significant,Corrected During Inspection,,
758,9001399,104090196,BENDALE BUSINESS AND TECHNICAL INSTITUTE,BENDALE BUSINESS AND TECHNICAL INSTITUTE,Secondary School Food Services,1555 MIDLAND AVE,43.75534836,-79.26474629,Pass,2,Operator fail to use proper procedure(s) to ensure food safety,2017-11-10,S - Significant,Corrected During Inspection,,
760,9001404,103955992,ROYAL YORK/BENIHANA,ROYAL YORK/BENIHANA,Restaurant,100 FRONT ST W,43.6456,-79.38243,Pass,3,OPERATE FOOD PREMISE-MECHANICAL EQUIPMENT NOT MAINTAINED TO PROVIDE SUFFICIENT CHEMICAL SOLUTION RINSE O. REG  562/90 SEC. 77(A)(II)(B),2017-04-26,S - Significant,Corrected During Inspection,,
767,9001425,103998989,BERNARD'S PILIPINO SPECIALTIES,BERNARD'S PILIPINO SPECIALTIES,Food Take Out,1534 QUEEN ST W,43.64006,-79.43933,Pass,3,Operator fail to properly wash equipment,2017-06-26,M - Minor,Notice to Comply,,
786,9001427,104086687,Berner Trail Early Learning & Child Care Centre,Berner Trail Early Learning & Child Care Centre,Child Care - Food Preparation,120 BERNER TRL,43.80157071,-79.22135576,Pass,2,,2017-11-06,,,,
789,9001428,104077518,BERRIES & BLOOMS YORK UNIVERSITY,BERRIES & BLOOMS YORK UNIVERSITY,Food Take Out,4700 KEELE ST,43.77341869,-79.50234145,Conditional Pass,2,Fail to Ensure the Presence of the Holder of a Valid Food Handler's Certificate. Muncipal Code Chapter 545-157(17)(a),2017-11-20,NA - Not Applicable,Notice to Comply,,
801,9001446,104389038,BEST DEALS,BEST DEALS,Food Store (Convenience / Variety),657 MARKHAM RD,43.76105413,-79.22539822,Pass,1,,2019-01-14,,,,
802,9001460,103954864,The Roehampton Hotel,The Roehampton Hotel,Banquet Facility,808 MOUNT PLEASANT RD,43.70900885,-79.39072799,Pass,2,,2017-04-25,,,,
805,9001470,104157015,BETH TIKVAH SYNAGOGUE,BETH TIKVAH SYNAGOGUE,Banquet Facility,3080 BAYVIEW AVE,43.779223,-79.39117366,Pass,1,,2018-02-23,,,,
806,9001484,103978733,BIAGIO RISTORANTE,BIAGIO RISTORANTE,Restaurant,155 KING ST E,43.650272,-79.37236,Pass,2,,2017-05-30,,,,
812,9001490,104073206,BIFF'S RESTAURANT,BIFF'S RESTAURANT,Restaurant,33 YONGE ST,43.64741,-79.3768,Pass,2,FAIL TO PROVIDE THERMOMETER IN STORAGE COMPARTMENT O. REG  562/90 SEC. 21,2017-10-17,S - Significant,Corrected During Inspection,,
816,9001496,104060519,BIG FISH MARKET,BIG FISH MARKET,Fish Shop,765 THE QUEENSWAY,43.625847,-79.504234,Pass,2,,2017-09-22,,,,
819,9001532,103970840,BILLY'S SOUVLAKI PLACE,BILLY'S SOUVLAKI PLACE,Restaurant,748 DOVERCOURT RD,43.660786,-79.429245,Pass,3,Operator fail to properly wash equipment,2017-05-17,M - Minor,Notice to Comply,,
824,9001557,103988070,BIRCHMOUNT CENTRE FOR EARLY LEARNING,BIRCHMOUNT CENTRE FOR EARLY LEARNING,Child Care - Catered,2360 BIRCHMOUNT RD,43.78293933,-79.29957063,Pass,2,Fail to Produce Valid Food Handler's Certificate. Muncipal Code Chapter 545-157(17)(c),2017-06-12,NA - Not Applicable,Notice to Comply,,
828,9001558,103969459,BAY MILLS EARLY LEARNING CHILD CARE CENTRE,BAY MILLS EARLY LEARNING CHILD CARE CENTRE,Child Care - Food Preparation,365 BAY MILLS BLVD,43.78124037,-79.30084246,Pass,2,,2017-05-16,,,,
832,9001562,104001873,BIRDS & BEES PRE SCHOOL,BIRDS & BEES PRE SCHOOL,Child Care - Food Preparation,720 KENNEDY RD,43.72958381,-79.26735641,Pass,3,,2017-06-29,,,,
838,9001568,103964561,BISHOP STRACHAN SCHOOL (CAFETERIA),BISHOP STRACHAN SCHOOL (CAFETERIA),Cafeteria,298 LONSDALE RD,43.69035369,-79.40932816,Pass,2,Operator fail to properly maintain rooms,2017-05-09,M - Minor,Notice to Comply,,
844,9001571,103994338,BISTRO 422,BISTRO 422,Restaurant,422 COLLEGE ST,43.656742,-79.40697,Pass,3,Operator fail to properly maintain rooms,2017-06-27,M - Minor,Notice to Comply,,
851,9001601,103952971,B.J. SUPERMARKET,B.J. SUPERMARKET,Food Store (Convenience / Variety),1449 GERRARD ST E,43.67221616,-79.32144667,Pass,2,Operator fail to properly maintain rooms,2017-04-21,M - Minor,Notice to Comply,,
856,9001608,103991975,BLACK FOREST,BLACK FOREST,Restaurant,2624 EGLINTON AVE E,43.7362184,-79.25172798,Pass,2,Fail to Ensure the Presence of the Holder of a Valid Food Handler's Certificate. Muncipal Code Chapter 545-157(17)(a),2017-06-15,NA - Not Applicable,Notice to Comply,,
859,9001612,103929540,BLACKHORN RESTAURANT,BLACKHORN RESTAURANT,Restaurant,251 ELLESMERE RD,43.7603901,-79.30201859,Pass,2,,2017-04-25,,,,
864,9001613,103982981,BLACKSMITH PUBLIC SCHOOL DAY CARE,BLACKSMITH PUBLIC SCHOOL DAY CARE,Child Care - Catered,45 BLACKSMITH CRES,43.77117255,-79.52681398,Pass,3,,2017-06-05,,,,
870,9001615,104047990,BLAKE PUBLIC SCHOOL,BLAKE PUBLIC SCHOOL,School Nourishment Program,21 BOULTBEE AVE,43.67181495,-79.33847947,Pass,2,,2017-09-07,,,,
873,9001616,103947442,BLAKE ST CHILD CARE CENTRE,BLAKE ST CHILD CARE CENTRE,Child Care - Food Preparation,84 BLAKE ST,43.67479537,-79.33978663,Pass,2,Operator fail to properly maintain rooms,2017-04-11,M - Minor,Notice to Comply,,
878,9001617,103970621,BLAYDON COMMUNITY DAY CARE,BLAYDON COMMUNITY DAY CARE,Child Care - Catered,25 BLAYDON AVE,43.73536582,-79.48625941,Pass,2,Operator fail to properly wash surfaces in rooms,2017-05-17,M - Minor,Notice to Comply,,
882,9001631,103953038,BLOOR BAR & BILLIARDS,BLOOR BAR & BILLIARDS,Restaurant,1050 BLOOR ST W,43.660645,-79.43233,Pass,2,,2017-04-21,,,,
887,9001638,103977615,BLOOR FRUIT MARKET,BLOOR FRUIT MARKET,Food Store (Convenience / Variety),662 BLOOR ST W,43.66419,-79.41588,Pass,1,Operator fail to properly maintain rooms,2017-05-29,M - Minor,Notice to Comply,,
890,9001643,103961939,BLOOR MEAT MARKET,BLOOR MEAT MARKET,Butcher Shop,2283 BLOOR ST W,43.65036043,-79.4787373,Pass,2,,2017-05-04,,,,
894,9001655,104333736,BLOOR WEST NURSERY SCHOOL,BLOOR WEST NURSERY SCHOOL,Child Care - Food Preparation,432 RUNNYMEDE RD,43.65681015,-79.47921439,Pass,2,,2018-10-31,,,,
895,9001658,104038341,BLOOR-JANE RESTAURANT,BLOOR-JANE RESTAURANT,Restaurant,2434 BLOOR ST W,43.6496076,-79.48418562,Pass,2,FAIL TO CLEAN TOILETS AS OFTEN AS NECESSARY O. REG  562/90 SEC. 68(4),2017-08-23,S - Significant,Corrected During Inspection,,
907,9001699,104020609,BLUEWATER CURRY & ROTI WEST INDIAN RESTAURANT,BLUEWATER CURRY & ROTI WEST INDIAN RESTAURANT,Restaurant,1646 VICTORIA PARK AVE,43.73093111,-79.30584849,Pass,3,Operator fail to properly wash surfaces in rooms,2017-07-27,M - Minor,Notice to Comply,,
915,9001709,104429719,BO HONG YUEN CHINESE HERBS,BO HONG YUEN CHINESE HERBS,Food Store (Convenience / Variety),421 DUNDAS ST W,43.65342,-79.39534,Pass,1,,2019-03-15,,,,
916,9001715,103984602,BOARD ROOM CATERING,BOARD ROOM CATERING,Food Caterer,29 CONNELL CRT,43.61362293,-79.51927093,Pass,3,,2017-06-06,,,,
922,9001734,103948740,BOB'S CONVENIENCE STORE,BOB'S CONVENIENCE STORE,Food Store (Convenience / Variety),316 PARLIAMENT ST,43.65951,-79.36602,Pass,1,Operator fail to properly wash equipment,2017-04-12,M - Minor,Notice to Comply,,
923,9001739,103986024,BOB'S VARIETY,BOB'S VARIETY,Food Store (Convenience / Variety),3364 KEELE ST,43.74605468,-79.48709419,Pass,1,,2017-06-07,,,,
925,9001743,104144858,JINGLES TOO,JINGLES TOO,Cocktail Bar / Beverage Room,1378 YONGE ST,43.68624656,-79.39356136,Pass,1,,2018-02-05,,,,
927,9001751,104074580,BOLOGNA PASTIFICIO,BOLOGNA PASTIFICIO,Food Processing Plant,2895 DUFFERIN ST,43.70824955,-79.45315911,Pass,2,Fail to Hold a Valid Food Handler's Certificate. Muncipal Code Chapter 545-157(17)(b),2017-10-23,NA - Not Applicable,Notice to Comply,,
936,9001753,103961401,BOMBAY BAZAAR,BOMBAY BAZAAR,Supermarket,3601 LAWRENCE AVE E,43.75952519,-79.22340486,Pass,3,Operator fail to properly maintain rooms,2017-05-03,M - Minor,Notice to Comply,,
955,9001756,103950972,BOMBAY PALACE,BOMBAY PALACE,Restaurant,71 JARVIS ST,43.651287,-79.372246,Pass,3,Operator fail to properly maintain rooms,2017-04-18,M - Minor,Notice to Comply,,
970,9001763,103949336,BONAVENTURE CHILD CARE CENTRE,BONAVENTURE CHILD CARE CENTRE,Child Care - Food Preparation,295 DUFFERIN ST,43.64004992,-79.427308,Pass,3,,2017-04-13,,,,
976,9001772,104048794,BONCHEFF GREENHOUSES INC.,BONCHEFF GREENHOUSES INC.,Food Processing Plant,374 OLIVEWOOD RD,43.63625009,-79.53109808,Pass,1,,2017-09-05,,,,
977,9001780,104046911,BONJOUR BRIOCHE BAKERY,BONJOUR BRIOCHE BAKERY,Restaurant,812 QUEEN ST E,43.65985949,-79.34631623,Pass,2,,2017-09-06,,,,
983,9001795,104210445,BOSTON DISCOUNT STORE,BOSTON DISCOUNT STORE,Food Store (Convenience / Variety),1020 QUEEN ST E,43.66153487,-79.33871992,Pass,1,Operator fail to properly maintain rooms,2018-05-02,M - Minor,Notice to Comply,,
984,9001797,104066660,BOSTON VARIETY AND FISH,BOSTON VARIETY AND FISH,Supermarket,1652 ST CLAIR AVE W,43.67497979,-79.45754907,Pass,1,,2017-10-04,,,,
986,9001806,103989179,BOVINE CLUB,BOVINE CLUB,Cocktail Bar / Beverage Room,542 QUEEN ST W,43.647453,-79.40271,Pass,2,,2017-06-14,,,,
988,9001821,104110859,BRAEBURN WOODS DAY CARE,BRAEBURN WOODS DAY CARE,Child Care - Catered,15 TANDRIDGE CRES,43.72803842,-79.5488671,Pass,2,,2017-12-14,,,,
990,9001823,103984362,BRAHMS DAY CARE CENTRE,BRAHMS DAY CARE CENTRE,Child Care - Catered,5 BRAHMS AVE,43.7927282,-79.3578377,Pass,2,,2017-06-06,,,,
995,9001828,104385366,BRANT STREET DAY CARE - ALPHA SITE,BRANT STREET DAY CARE - ALPHA SITE,Child Care - Catered,20 BRANT ST,43.64573061,-79.39822582,Pass,1,,2019-01-08,,,,
996,9001829,103988438,D.A.S. DAY CARE,D.A.S. DAY CARE,Child Care - Catered,85 LOWER JARVIS ST,43.64774472,-79.37041888,Pass,2,,2017-06-12,,,,
1000,9001836,104057341,BRASS TAPS PIZZA PUB,BRASS TAPS PIZZA PUB,Restaurant,934 COLLEGE ST,43.653625,-79.42618,Pass,2,,2017-09-20,,,,
1008,9001842,104027943,BRAZIL BAKERY & PASTRY,BRAZIL BAKERY & PASTRY,Bakery,1566 DUNDAS ST W,43.64992,-79.43412,Pass,3,Operator fail to properly maintain equipment(NON-FOOD),2017-08-09,M - Minor,Notice to Comply,,
1027,9001852,104106619,BREAD KING BAKERIES,BREAD KING BAKERIES,Bakery,462 BIRCHMOUNT RD,43.70729273,-79.26959881,Pass,2,Operator fail to properly wash equipment,2017-12-20,M - Minor,Notice to Comply,,
1035,9001854,104363927,B & A BAKERY,B & A BAKERY,Bake Shop,1820 ELLESMERE RD,43.77410087,-79.24379989,Pass,1,,2018-11-19,,,,
1037,9001863,104311671,BREAKFAST CLUB,BREAKFAST CLUB,School Nourishment Program,2180 ELLESMERE RD,43.77761212,-79.23116959,Pass,1,,2018-09-26,,,,
1038,9001873,104111063,BRENNAN HALL,BRENNAN HALL,Cafeteria - Public Access,81 ST MARY ST,43.66649955,-79.38970067,Pass,2,Operator fail to properly maintain rooms,2017-12-14,M - Minor,Notice to Comply,,
1041,9001878,103960973,BRIAN'S PETITS AMIS CHILDREN'S CENTRE,BRIAN'S PETITS AMIS CHILDREN'S CENTRE,Child Care - Catered,95 BRIAN DR,43.78172812,-79.33180984,Pass,2,,2017-05-03,,,,
1044,9001879,104126469,BRIARCREST CHILD CARE CENTRE,BRIARCREST CHILD CARE CENTRE,Child Care - Catered,60 WELLESWORTH DR,43.66647435,-79.58007858,Pass,2,,2018-01-11,,,,
1045,9001885,104002537,BRIDLEGROVE DAY CARE CENTRE,BRIDLEGROVE DAY CARE CENTRE,Child Care - Food Preparation,2575 PHARMACY AVE,43.79405227,-79.32479345,Pass,3,FAIL TO HAVE TEST REAGENT AVAILABLE AT  PLACE OF SANITIZATION O. REG  562/90 SEC. 75(2),2017-06-30,S - Significant,Corrected During Inspection,,
1052,9001886,103998218,ROYAL CANADIAN LEGION #345,ROYAL CANADIAN LEGION #345,Banquet Facility,81 PEARD RD,43.71030958,-79.29738775,Pass,1,,2017-06-23,,,,
1053,9001894,104037274,BRIONI SUPERMARKET LTD.,BRIONI SUPERMARKET LTD.,Supermarket,169 GARY DR,43.71130661,-79.51690736,Pass,2,Operator fail to properly wash equipment,2017-08-22,M - Minor,Notice to Comply,,
1059,9001900,104014346,THE BRITON HOUSE RETIREMENT HOME,THE BRITON HOUSE RETIREMENT HOME,Retirement Homes(Licensed),720 MOUNT PLEASANT RD,43.70653696,-79.38981531,Pass,3,Operator fail to properly wash equipment,2017-07-19,M - Minor,Notice to Comply,,
1066,9001906,104063390,BROADVIEW BAKERY & DELI,BROADVIEW BAKERY & DELI,Bakery,728 QUEEN ST E,43.6592131,-79.34925076,Pass,2,,2017-09-28,,,,
1077,9001912,104055026,BROCK EARLY LEARNING CENTRE,BROCK EARLY LEARNING CENTRE,Child Care - Catered,93 MARGUERETTA ST,43.65305827,-79.43784738,Pass,2,FAIL TO HAVE TEST REAGENT AVAILABLE AT  PLACE OF SANITIZATION O. REG  562/90 SEC. 75(2),2017-09-18,S - Significant,Corrected During Inspection,,
1080,9001915,104146588,BROOKHAVEN CHILD CARE CENTRE - NORTH YORK,BROOKHAVEN CHILD CARE CENTRE - NORTH YORK,Child Care - Food Preparation,70 BROOKHAVEN DR,43.70251489,-79.49569768,Pass,2,,2018-02-07,,,,
1081,9001916,104146627,BROOKHAVEN P.S.,BROOKHAVEN P.S.,School Nourishment Program,70 BROOKHAVEN DR,43.70251489,-79.49569768,Pass,1,,2018-02-07,,,,
1082,9001928,104040327,BROS. CONVENIENCE,BROS. CONVENIENCE,Food Store (Convenience / Variety),707 KENNEDY RD,43.7278782,-79.26560021,Pass,1,,2017-08-11,,,,
1084,9001931,104145559,BROTHER'S DISCOUNT,BROTHER'S DISCOUNT,Food Store (Convenience / Variety),486 QUEEN ST W,43.64787,-79.40064,Pass,1,,2018-02-06,,,,
1086,9001936,104097859,BROWN  BROTHERS MEATS & POULTRY,BROWN  BROTHERS MEATS & POULTRY,Butcher Shop,91 FRONT ST E,43.649075,-79.37213,Pass,2,Operator fail to properly maintain equipment(NON-FOOD),2017-11-22,M - Minor,Notice to Comply,,
1092,9001950,103948334,BRUNO'S FINE FOODS,BRUNO'S FINE FOODS,Supermarket,4242 DUNDAS ST W,43.65994258,-79.51404485,Pass,2,Operator fail to properly wash equipment,2017-04-12,M - Minor,Notice to Comply,,
1096,9001954,103985277,BRUNO'S FINE FOODS,BRUNO'S FINE FOODS,Supermarket,2055 AVENUE RD,43.7366088,-79.41994452,Pass,2,Operator fail to properly wash surfaces in rooms,2017-06-07,M - Minor,Notice to Comply,,
1099,9001976,103991879,THE NEW BUFFALO RESTAURANT,THE NEW BUFFALO RESTAURANT,Restaurant,242 QUEEN ST E,43.65482,-79.36847,Pass,2,Fail to Ensure the Presence of the Holder of a Valid Food Handler's Certificate. Muncipal Code Chapter 545-157(17)(a),2017-06-15,NA - Not Applicable,Notice to Comply,,
1103,9001994,103991828,BULK 'N BITS,BULK 'N BITS,Food Store (Convenience / Variety),250 THE EAST MALL,43.632793,-79.55468,Pass,1,,2017-06-12,,,,
1104,9002000,104091231,THE BULL - A FIRKIN PUB,THE BULL - A FIRKIN PUB,Restaurant,1835 YONGE ST,43.69673717,-79.39573304,Pass,2,Fail to Post Licence Adjacent to Food Safety Inspection Notice. Muncipal Code Chapter 545-157(E)(4),2017-11-13,NA - Not Applicable,Notice to Comply,,
1106,9002014,103968808,BUN KING BAKERY,BUN KING BAKERY,Bakery,11 WESTMORE DR,43.74300422,-79.60360564,Pass,2,Operate food premise not maintained with tight floor surface where utensils washed O. Reg  562/90 Sec. 11(d)(ii),2017-05-15,M - Minor,Notice to Comply,,
1117,9002020,104084587,BUN SAIGON,BUN SAIGON,Restaurant,252 SPADINA AVE,43.6517,-79.3978,Pass,2,Operator fail to properly wash equipment,2017-11-01,M - Minor,Notice to Comply,,
1119,9002028,104179667,BUNTON LODGE SALVATION ARMY.,BUNTON LODGE SALVATION ARMY.,Boarding / Lodging Home - Kitchen,432 SHERBOURNE ST,43.66549256,-79.37430878,Pass,2,FAIL TO HAVE TEST REAGENT AVAILABLE AT  PLACE OF SANITIZATION O. REG  562/90 SEC. 75(2),2018-03-19,S - Significant,Corrected During Inspection,,
1122,9002030,104025447,BUON APPETITE FINE FOODS LIMITED,BUON APPETITE FINE FOODS LIMITED,Supermarket,2764 VICTORIA PARK AVE,43.78712205,-79.32897154,Pass,2,,2017-08-02,,,,
1124,9002032,104090445,BUON GIORNO CAFFE,BUON GIORNO CAFFE,Restaurant,1134 THE QUEENSWAY,43.62287,-79.51957,Pass,2,Operator fail to properly wash surfaces in rooms,2017-11-10,M - Minor,Notice to Comply,,
1128,9002048,104012673,Burger King,BURGER KING,Restaurant,2372 FINCH AVE W,43.7518714,-79.54543534,Pass,2,Operator fail to provide proper equipment,2017-07-17,M - Minor,Notice to Comply,,
1131,9002052,104099249,Burger King,BURGER KING,Restaurant,2571 LAWRENCE AVE E,43.75102517,-79.26553927,Pass,1,,2017-12-06,,,,
1135,9002056,104055553,Burger King,BURGER KING,Food Court Vendor,500 REXDALE BLVD,43.72038522,-79.60006398,Pass,2,,2017-09-18,,,,
1137,9002067,104024369,Burger King,BURGER KING,Restaurant,1194 KING ST W,43.639103,-79.42709,Pass,2,,2017-08-02,,,,
1141,9002075,104157428,BURNHAMTHORPE C.I.,BURNHAMTHORPE C.I.,Secondary School Food Services,500 THE EAST MALL,43.648552,-79.56033,Pass,2,,2018-02-26,,,,
1144,9002078,103946557,BURWASH HALL,BURWASH HALL,Cafeteria,91 CHARLES ST W,43.66695967,-79.39211591,Pass,3,Operator fail to properly maintain rooms,2017-04-10,M - Minor,Notice to Comply,,
1150,9002084,104222058,BUSY BEE KING MART,BUSY BEE KING MART,Food Store (Convenience / Variety),677 KING ST W,43.64378,-79.40325,Pass,1,Operator fail to properly maintain rooms,2018-05-17,M - Minor,Notice to Comply,,
1151,9002087,103956968,BUT N BEN BUTCHER,BUT N BEN BUTCHER,Butcher Shop,1601 ELLESMERE RD,43.77153425,-79.25255015,Pass,2,Fail to Ensure the Presence of the Holder of a Valid Food Handler's Certificate. Muncipal Code Chapter 545-157(17)(a),2017-05-02,NA - Not Applicable,Notice to Comply,,
1158,9002095,104013798,BUZZ BUZZ PIZZA,BUZZ BUZZ PIZZA,Restaurant,822 WILSON AVE,43.73093335,-79.46676625,Pass,2,OPERATOR FAIL TO ENSURE COVER WILL PREVENT CONTAMINATION OR ADULTERATION O. REG  562/90 SEC. 59(C)(II),2017-07-18,S - Significant,Corrected During Inspection,,
1166,9002097,103952182,BY THE WAY CAFE,BY THE WAY CAFE,Restaurant,400 BLOOR ST W,43.66599,-79.407555,Pass,2,Operator fail to properly maintain rooms,2017-04-20,M - Minor,Notice to Comply,,
1170,9002102,103973516,C & C TRADING,C & C TRADING,Food Store (Convenience / Variety),2347 KENNEDY RD,43.78406513,-79.28829245,Pass,2,Operator fail to provide proper equipment,2017-05-23,M - Minor,Notice to Comply,,
1172,9002138,103955427,CADILLAC LOUNGE,CADILLAC LOUNGE,Restaurant,1296 QUEEN ST W,43.641872,-79.43072,Conditional Pass,3,Fail to Produce Most Recent Food Safety Inspection Report(s). Muncipal Code Chapter 545-157(E)(5),2017-04-25,NA - Not Applicable,Notice to Comply,,
1187,9002145,103969149,HOLT'S  CAFE,HOLT'S  CAFE,Restaurant,50 BLOOR ST W,43.67038727,-79.38831795,Pass,2,,2017-05-15,,,,
1191,9002170,104014199,CAFE DIPLOMATICO,CAFE DIPLOMATICO,Restaurant,594 COLLEGE ST,43.655235,-79.41381,Pass,2,Operator fail to properly maintain rooms,2017-07-20,M - Minor,Notice to Comply,,
1204,9002175,103955429,CAFE ENCONTRO,CAFE ENCONTRO,Restaurant,258 LANSDOWNE AVE,43.65139,-79.44019,Pass,3,Operator fail to properly wash surfaces in rooms,2017-04-26,M - Minor,Notice to Comply,,
1208,9002203,104176973,CAFE MONDIALE,CAFE MONDIALE,Restaurant,1947 SHEPPARD AVE W,43.73924434,-79.51132544,Pass,1,,2018-03-14,,,,
1209,9002206,103995777,TRATTORIA  NERVOSA,TRATTORIA  NERVOSA,Restaurant,75 YORKVILLE AVE,43.67101994,-79.3910854,Pass,2,,2017-06-20,,,,
1213,9002210,103836034,CAFE OLE,CAFE OLE,Flea Market,1921 EGLINTON AVE E,43.72701244,-79.28814462,Conditional Pass,2,FOOD PREMISE NOT MAINTAINED TO KEEP FOOD-HANDLING ROOM FREE FROM EQUIPMENT NOT REGULARLY USED - SEC. 7(1)(F),2018-12-09,M - Minor,Notice to Comply,,
1217,9002219,103961345,CAFE ON THE SQUARE,CAFE ON THE SQUARE,Restaurant,100 QUEEN ST W,43.653505,-79.384106,Pass,2,,2017-05-03,,,,
1224,9002221,103986930,CAFE POLONEZ,CAFE POLONEZ,Restaurant,195 RONCESVALLES AVE,43.64513,-79.448456,Pass,2,,2017-06-08,,,,
1230,9002237,103967984,CAFECINO,CAFECINO,Restaurant,628 WILSON AVE,43.73237602,-79.46067668,Pass,2,Operator fail to properly wash equipment,2017-05-12,M - Minor,Notice to Comply,,
1236,9002241,103967088,MARRIOTT HOTEL - CAFETERIA,MARRIOTT HOTEL - CAFETERIA,Cafeteria,525 BAY ST,43.65486836,-79.38238222,Pass,2,,2017-05-10,,,,
1240,9002244,103955455,CAFFE DEMETRE,CAFFE DEMETRE,Restaurant,2962 BLOOR ST W,43.64821048,-79.50862233,Pass,2,,2017-04-25,,,,
1244,9002259,104010292,CALABRIA BAKERY,CALABRIA BAKERY,Restaurant,1770 MIDLAND AVE,43.76175117,-79.26966885,Pass,3,Operator fail to provide accurate indicating thermometer(s),2017-07-13,S - Significant,Corrected During Inspection,,
1257,9002262,103961497,CALDENSE BAKERY,CALDENSE BAKERY & PASTRIES,Restaurant,1209 DUNDAS ST W,43.64929,-79.42263,Pass,3,FAIL TO HAVE TEST REAGENT AVAILABLE AT  PLACE OF SANITIZATION O. REG  562/90 SEC. 75(2),2017-05-03,S - Significant,Corrected During Inspection,,
1267,9002263,103978349,CALDENSE BAKERY,CALDENSE BAKERY AND PASTRIES III,Bakery,337 SYMINGTON AVE,43.66648,-79.4514,Pass,3,,2017-05-30,,,,
1295,9002272,104146920,CALEDONIA VARIETY,CALEDONIA VARIETY,Food Store (Convenience / Variety),30 CORBY AVE,43.68487225,-79.45853483,Pass,1,,2018-02-07,,,,
1296,9002274,103952111,CALICO SAINTS DAYCARE,CALICO SAINTS DAYCARE,Child Care - Catered,35 CALICO DR,43.73791477,-79.50359532,Pass,2,,2017-04-20,,,,
1300,9002279,103961262,CALIFORNIA SANDWICHES,CALIFORNIA SANDWICHES,Restaurant,3703 CHESSWOOD DR,43.75629161,-79.47409222,Pass,2,FAIL TO HAVE TEST REAGENT AVAILABLE AT  PLACE OF SANITIZATION O. REG  562/90 SEC. 75(2),2017-05-03,S - Significant,Corrected During Inspection,,
1307,9002280,103954829,CALIFORNIA SANDWICHES,CALIFORNIA SANDWICHES,Restaurant,244 CLAREMONT ST,43.652576,-79.41227,Pass,3,Operator fail to properly wash surfaces in rooms,2017-04-24,M - Minor,Notice to Comply,,
1313,9002287,104074583,CAMARRA'S PIZZERIA & RESTAURANT,CAMARRA'S PIZZERIA & RESTAURANT,Restaurant,2899 DUFFERIN ST,43.70834785,-79.4532073,Conditional Pass,2,Fail to Hold a Valid Food Handler's Certificate. Muncipal Code Chapter 545-157(17)(b),2017-10-17,NA - Not Applicable,Notice to Comply,,
1330,9002289,104052847,CAMBRIDGE PLACE CENTRE FOR EARLY LEARNING,CAMBRIDGE PLACE CENTRE FOR EARLY LEARNING,Child Care - Catered,30 DENTON AVE,43.69397801,-79.28769907,Pass,2,,2017-09-14,,,,
1333,9002325,103977660,KING STREET SOCIAL KITCHEN AND BAR,KING STREET SOCIAL KITCHEN AND BAR,Restaurant,370 KING ST W,43.646267,-79.39171,Pass,3,,2017-05-29,,,,
1342,9002334,104255992,CANADIAN FRUIT INC.,CANADIAN FRUIT INC.,Food Depot,165 THE QUEENSWAY,43.6288,-79.486015,Pass,1,,2018-07-04,,,,
1343,9002340,103996940,THE ROYAL CANADIAN LEGION,THE ROYAL CANADIAN LEGION,Banquet Facility,45 LAWSON RD,43.78223738,-79.16272343,Pass,1,,2017-06-22,,,,
1344,9002343,103948766,CANADIAN MOTHERCRAFT SOCIETY (EATON CENTRE'S CHILD CARE),CANADIAN MOTHERCRAFT SOCIETY (EATON CENTRE'S CHILD CARE),Child Care - Food Preparation,14 TRINITY SQ,43.65448664,-79.38147634,Pass,3,,2017-04-12,,,,
1352,9002344,104002679,MOTHERCRAFT: ROBERTSON HOUSE(32 HEATH STREET WEST),MOTHERCRAFT: ROBERTSON HOUSE(32 HEATH STREET WEST),Child Care - Food Preparation,32 HEATH ST W,43.69023838,-79.39661398,Pass,3,,2017-06-30,,,,
1358,9002359,104091029,CANADIANA COURT CHILD CARE CENTRE,CANADIANA COURT CHILD CARE CENTRE,Child Care - Food Preparation,20 GORDONRIDGE PL,43.72712344,-79.25228147,Pass,3,Operator fail to properly maintain equipment(NON-FOOD),2017-11-13,M - Minor,Notice to Comply,,
1364,9002362,104020448,CANADIANA RESTAURANT & BANQUET HALL,CANADIANA RESTAURANT & BANQUET HALL,Restaurant,5230 DUNDAS ST W,43.64026987,-79.53813239,Pass,2,,2017-07-27,,,,
1366,9002378,103967596,CANOE,CANOE,Restaurant,66 WELLINGTON ST W,43.64723947,-79.38122803,Pass,2,,2017-07-18,,,,
1369,9002381,103961059,CANTANHEDE O BAIRRADINO,CANTANHEDE O BAIRRADINO,Restaurant,662 LANSDOWNE AVE,43.662613,-79.44475,Pass,3,Operator fail to properly wash surfaces in rooms,2017-05-03,M - Minor,Notice to Comply,,
1375,9002397,103946502,CANTONESE GOURMET,CANTONESE GOURMET,Restaurant,1260 THE QUEENSWAY,43.621414,-79.52541,Pass,2,,2017-04-11,,,,
1382,9002404,104011849,CAPITOL CAFE & RESTAURANT,CAPITOL CAFE & RESTAURANT,Restaurant,597 COLLEGE ST,43.655205,-79.413956,Pass,2,Operator fail to properly maintain rooms,2017-07-14,M - Minor,Notice to Comply,,
1388,9002409,103961271,CAPRI BAGELS AND BUNS,CAPRI BAGELS AND BUNS,Restaurant,173 MILLWICK DR,43.76011337,-79.57021569,Pass,2,Operator fail to provide proper equipment,2017-05-03,M - Minor,Notice to Comply,,
1397,9002411,104056784,CAPRI BAKERY,CAPRI BAKERY,Restaurant,84 OAKDALE RD,43.7392405,-79.52589246,Pass,2,,2017-09-18,,,,
1405,9002416,103992727,CAPTAIN COOKES FISH & CHIPS,CAPTAIN COOKES FISH & CHIPS,Food Take Out,219 PARLIAMENT ST,43.656815,-79.36492,Pass,2,Operator fail to properly maintain rooms,2017-06-16,M - Minor,Notice to Comply,,
1410,9002417,104296405,CAPTAIN JACK,CAPTAIN JACK,Restaurant,2 WHEELER AVE,43.67053236,-79.2991699,Pass,1,,2018-09-04,,,,
1411,9002429,103990663,CARDINAL LEGER CHILD CARE CENTRE,CARDINAL LEGER CHILD CARE CENTRE,Child Care - Catered,600 MORRISH RD,43.79310442,-79.17571109,Pass,2,,2017-06-14,,,,
1414,9002433,103992732,CAREFREE LODGE,CAREFREE LODGE,Nursing Home / Home for the Aged,306 FINCH AVE E,43.78502176,-79.39403589,Pass,3,,2017-06-16,,,,
1437,9002441,104002104,CARIBBEAN CORNER,CARIBBEAN CORNER,Food Store (Convenience / Variety),171 BALDWIN ST,43.654846,-79.40026,Pass,2,Operator fail to properly wash surfaces in rooms,2017-06-29,M - Minor,Notice to Comply,,
1441,9002451,104076466,CARIBBEAN QUEEN ROTI HUT,CARIBBEAN QUEEN ROTI HUT,Restaurant,2957 LAKE SHORE BLVD W,43.60042711,-79.50579064,Pass,2,Operator fail to use proper procedure(s) to ensure food safety,2017-10-19,S - Significant,Corrected During Inspection,,
1444,9002466,103964588,CAROLE'S CHEESECAKE COMPANY,CAROLE'S CHEESECAKE COMPANY,Food Processing Plant,1272 CASTLEFIELD AVE,43.69954681,-79.45874868,Pass,2,,2017-05-09,,,,
1447,9002483,103991455,CARLTON VILLAGE PUBLIC SCHOOL,CARLTON VILLAGE PUBLIC SCHOOL,School Nourishment Program,315 OSLER ST,43.67236139,-79.46003206,Pass,2,Operator fail to properly maintain equipment(NON-FOOD),2017-06-15,M - Minor,Notice to Comply,,
1451,9002489,103974196,CARMELITE DAY NURSERY INC.,CARMELITE DAY NURSERY INC.,Child Care - Food Preparation,108 HARRISON ST,43.65121289,-79.42199419,Pass,3,,2017-05-25,,,,
1456,9002509,103983203,CARUSO MINI MARKET,CARUSO MINI MARKET,Food Store (Convenience / Variety),2837 KINGSTON RD,43.72132336,-79.23642044,Pass,2,FAIL TO STORE FOOD ON RACKS OR SHELVES O. REG  562/90 SEC. 23,2017-06-05,S - Significant,Corrected During Inspection,,
1462,9002511,103989725,CASA BARCELONA,CASA BARCELONA,Restaurant,2980 BLOOR ST W,43.64801864,-79.50966989,Pass,2,,2017-06-28,,,,
1469,9002517,103824816,CASA DA MADEIRA COMMUNITY CENTRE,CASA DA MADEIRA COMMUNITY CENTRE,Banquet Facility,1621 DUPONT ST,43.664845,-79.45503,Pass,3,,2017-05-08,,,,
1473,9002523,103983109,CASA DO ALENTEJO COMMUNITY CENTRE,CASA DO ALENTEJO COMMUNITY CENTRE,Restaurant,1130 DUPONT ST,43.668827,-79.43755,Pass,3,Fail to Ensure the Presence of the Holder of a Valid Food Handler's Certificate. Muncipal Code Chapter 545-157(17)(a),2017-06-05,NA - Not Applicable,Notice to Comply,,
1479,9002527,103993871,CASA LOMA CHILD CARE CENTRE,CASA LOMA CHILD CARE CENTRE,Child Care - Food Preparation,160 KENDAL AVE,43.67602093,-79.41104866,Pass,3,Operator fail to properly wash surfaces in rooms,2017-06-19,M - Minor,Notice to Comply,,
1485,9002552,104017556,CAST FOR KIDS CHILD CARE CENTRE,CAST FOR KIDS CHILD CARE CENTRE,Child Care - Catered,1430 SHEPPARD AVE W,43.74543295,-79.48826393,Pass,3,,2017-07-24,,,,
1491,9002554,104002357,CASTLE FRUIT,CASTLE FRUIT,Food Store (Convenience / Variety),80 KENSINGTON AVE,43.65478,-79.40071,Pass,1,,2017-06-29,,,,
1494,9002557,104025468,CASTLEVIEW WYCHWOOD TOWERS,CASTLEVIEW WYCHWOOD TOWERS,Nursing Home / Home for the Aged,351 CHRISTIE ST,43.67338942,-79.421173,Pass,3,Operator fail to properly wash equipment,2017-08-03,M - Minor,Notice to Comply,,
1500,9002558,103948140,CASTRO'S LOUNGE,CASTRO'S LOUNGE,Restaurant,2116 QUEEN ST E,43.67134556,-79.29488703,Pass,2,FAIL TO PROVIDE SOAP OR DETERGENT IN FOOD PREPARATION AREA O. REG  562/90 SEC. 20(1)(C),2017-04-11,S - Significant,Corrected During Inspection,,
1506,9002583,104044560,CATHOLIC SETTLEMENT HOUSE DAY NURSERY,CATHOLIC SETTLEMENT HOUSE DAY NURSERY,Child Care - Food Preparation,131 MC CAUL ST,43.65460007,-79.391295,Pass,2,,2017-08-31,,,,
1512,9002586,103962031,CATTLEMEN MEAT MARKET,CATTLEMEN MEAT MARKET,Butcher Shop,1538 QUEEN ST W,43.64003,-79.439476,Pass,2,,2017-05-18,,,,
1516,9002590,104059021,CAVALLINO SPORTS CAFE,CAVALLINO SPORTS CAFE,Restaurant,930 THE QUEENSWAY,43.62442,-79.51198,Pass,2,FAIL TO PROVIDE SOAP OR DETERGENT IN FOOD PREPARATION AREA O. REG  562/90 SEC. 20(1)(C),2017-09-20,S - Significant,Corrected During Inspection,,
1519,9002605,104037072,CEDARBRAE DAY CARE,CEDARBRAE DAY CARE,Child Care - Food Preparation,20 GREENCREST CRCT,43.75836953,-79.22343125,Pass,3,,2017-08-22,,,,
1525,9002608,103935141,CEDARBRAE GOLF & COUNTRY CLUB,CEDARBRAE GOLF & COUNTRY CLUB,Restaurant,55 MAC FROST WAY,43.83913923,-79.22994826,Pass,3,FAIL TO STORE FOOD ON RACKS OR SHELVES O. REG  562/90 SEC. 23,2017-04-25,S - Significant,Corrected During Inspection,,
1531,9002619,103983360,CENTENNIAL COLLEGE EARLY CHILDHOOD EDUCATION + SATELLITE,CENTENNIAL COLLEGE EARLY CHILDHOOD EDUCATION + SATELLITE,Child Care - Food Preparation,550 MORTIMER AVE,43.69065439,-79.32731356,Pass,2,Operator fail to properly wash surfaces in rooms,2017-06-12,M - Minor,Notice to Comply,,
1535,9002620,104038012,CENTENARY - 7 OAKS CHILD CARE CENTRE,CENTENARY - 7 OAKS CHILD CARE CENTRE,Child Care - Catered,9 NEILSON RD,43.78164671,-79.2035789,Pass,2,,2017-08-23,,,,
1537,9002627,103963330,CENTENNIAL INFANT & CHILD CARE,CENTENNIAL INFANT & CHILD CARE,Child Care - Catered,1580 YONGE ST,43.69057361,-79.39547766,Pass,2,,2017-05-08,,,,
1542,9002646,103993997,CENTRAL EGLINTON CHILDREN'S CENTRE,CENTRAL EGLINTON CHILDREN'S CENTRE,Child Care - Food Preparation,223 EGLINTON AVE E,43.70791234,-79.39085007,Pass,3,,2017-06-19,,,,
1547,9002647,104131565,CENTRAL ETOBICOKE H.S.,CENTRAL ETOBICOKE H.S.,Secondary School Food Services,10 DENFIELD ST,43.67901856,-79.55548893,Pass,2,,2018-01-18,,,,
1548,9002652,103991327,CENTRAL MONTESSORI PRE-SCHOOL,CENTRAL MONTESSORI PRE-SCHOOL,Child Care - Catered,200 SHEPPARD AVE E,43.76387147,-79.40166549,Pass,3,Operator fail to properly wash equipment,2017-06-15,M - Minor,Notice to Comply,,
1554,9002653,103999417,CENTRAL MONTESSORI SCHOOL,CENTRAL MONTESSORI SCHOOL,Child Care - Catered,157 WILLOWDALE AVE,43.76665874,-79.40041986,Pass,2,,2017-06-26,,,,
1558,9002654,103958063,CENTRAL NEIGHBOURHOOD HOUSE,CENTRAL NEIGHBOURHOOD HOUSE,Child Care - Food Preparation,349 ONTARIO ST,43.660583,-79.36909,Pass,3,,2017-04-28,,,,
1564,9002663,103925502,LEASIDE RETIREMENT RESIDENCE,LEASIDE RETIREMENT RESIDENCE,Retirement Homes(Licensed),10 WILLIAM MORGAN DR,43.70937861,-79.34176907,Pass,3,,2017-04-28,,,,
1581,9002664,104009560,THE ANNEX RETIREMENT BY REVERA,THE ANNEX RETIREMENT BY REVERA,Retirement Homes(Licensed),123 SPADINA RD,43.67175042,-79.4055045,Pass,3,,2017-07-12,,,,
1588,9002667,103985404,CENTRAL TECHNICAL SCHOOL,CENTRAL TECHNICAL SCHOOL,College/University Food services,725 BATHURST ST,43.663727,-79.40876,Pass,3,Operator fail to properly wash surfaces in rooms,2017-06-07,M - Minor,Notice to Comply,,
1597,9002673,103949777,CENTRE DES PIONEERS,CENTRE DES PIONEERS,Institutional Food Service,33 HAHN PL,43.64941109,-79.36270023,Pass,3,,2017-04-13,,,,
1605,9002676,104034760,CENTRE ISLAND FOOD SERVICES LTD,CENTRE ISLAND FOOD SERVICES LTD,Food Depot,1 CENTRE ISLAND PK,43.61522378,-79.37727872,Pass,2,,2017-08-17,,,,
1607,9002680,103974190,CENTRO-CLINTON DAY CARE CENTRE,CENTRO-CLINTON DAY CARE CENTRE,Child Care - Food Preparation,460 MANNING AVE,43.65765466,-79.41406082,Pass,3,,2017-05-24,,,,
1612,9002682,103981934,CENTRO TRATTORIA & FORMAGGI,CENTRO TRATTORIA & FORMAGGI,Supermarket,1224 ST CLAIR AVE W,43.67777133,-79.4449193,Pass,2,,2017-06-02,,,,
1615,9002688,103982752,C'EST WHAT?,C'EST WHAT?,Restaurant,67 FRONT ST E,43.648514,-79.37355,Pass,2,Operator fail to properly maintain rooms,2017-06-05,M - Minor,Notice to Comply,,
1622,9002694,104252835,The Diner,The Diner,Restaurant,9 CHANNEL NINE CRT,43.78242037,-79.25776058,Pass,2,,2018-06-28,,,,
1623,9002699,104107400,CHALKFARM P.S.,CHALKFARM P.S.,School Nourishment Program,100 CHALKFARM DR,43.72711502,-79.51439603,Pass,1,,2017-12-08,,,,
1624,9002701,103969173,CHALLENGE,CHALLENGE,Chartered Cruise Boats,201 QUEENS QUAY  W,43.639843,-79.38039,Pass,1,,2017-05-15,,,,
1625,9002706,103955206,CHAMPION'S OFF TRACK BETTING,CHAMPION'S OFF TRACK BETTING,Cocktail Bar / Beverage Room,421 DUNDAS ST W,43.65342,-79.39534,Pass,1,,2017-04-27,,,,
1627,9002707,103987352,CHAMPIONS CHILDREN'S CENTRE,CHAMPIONS CHILDREN'S CENTRE,Child Care - Catered,9 GRENOBLE DR,43.71528314,-79.33225573,Pass,2,Fail to Hold a Valid Food Handler's Certificate. Muncipal Code Chapter 545-157(17)(b),2017-06-22,NA - Not Applicable,Notice to Comply,,
1631,9002708,104279800,CHAMPIONS OFF-TRACK WAGERING,CHAMPIONS OFF-TRACK WAGERING,Restaurant,729 GERRARD ST E,43.66637169,-79.3476218,Pass,1,,2018-08-09,,,,
1632,9002721,103960165,HOLLYWOOD GELATO,HOLLYWOOD GELATO,Restaurant,1640 BAYVIEW AVE,43.70677871,-79.37588964,Pass,2,,2017-05-02,,,,
1637,9002727,103987246,CHARLES G. FRASER SCHOOL,CHARLES G. FRASER SCHOOL,School Nourishment Program,79 MANNING AVE,43.64853867,-79.40948687,Pass,2,,2017-06-09,,,,
1641,9002748,104050877,CHARLOTTETOWN BLVD CHILD,CHARLOTTETOWN BLVD CHILD,Child Care - Catered,111 ISLAND RD,43.79780432,-79.13741904,Pass,2,,2017-09-12,,,,
1644,9002751,103984409,CHARTLAND DAY CARE,CHARTLAND DAY CARE,Child Care - Catered,109 CHARTLAND BLVD S,43.79962686,-79.2779255,Pass,2,,2017-05-30,,,,
1648,9002762,104068655,CHEER DAYCARE CENTRE,CHEER DAYCARE CENTRE,Child Care - Catered,3300 KENNEDY RD,43.81749684,-79.30483381,Pass,2,,2017-10-06,,,,
1652,9002764,104131481,CHEERS,CHEERS,Restaurant,1553 KINGSTON RD,43.68967191,-79.26775025,Pass,2,Operator fail to properly maintain rooms,2018-01-23,M - Minor,Notice to Comply,,
1657,9002773,103994075,CHEESE MAGIC,CHEESE MAGIC,Food Store (Convenience / Variety),182 BALDWIN ST,43.65479,-79.400894,Pass,2,,2017-06-19,,,,
1661,9002778,103966458,TORONTO HYDRO CAFETERIA,TORONTO HYDRO CAFETERIA,Restaurant,500 COMMISSIONERS ST,43.65394515,-79.33404219,Pass,2,,2017-05-11,,,,
1665,9002795,103971330,PENALTY BOX CHESSWOOD,PENALTY BOX CHESSWOOD,Restaurant,4000 CHESSWOOD DR,43.75644414,-79.47758646,Pass,2,,2017-05-17,,,,
1675,9002798,103970101,CHESTER FRIED CHICKEN,CHESTER FRIED CHICKEN,Restaurant,2340 DUNDAS ST W,43.65648,-79.4525,Pass,2,Operator fail to properly wash surfaces in rooms,2017-05-16,M - Minor,Notice to Comply,,
1678,9002806,103948439,CHESTER JR. Y DAYCARE,CHESTER JR. Y DAYCARE,Child Care - Catered,115 GOWAN AVE,43.68761097,-79.35171321,Pass,2,,2017-04-12,,,,
1682,9002812,104008918,WISH,WISH,Restaurant,3 CHARLES ST E,43.6686208,-79.38563479,Pass,3,Operator fail to properly maintain equipment(NON-FOOD),2017-07-11,M - Minor,Notice to Comply,,
1690,9002818,104014317,CRANBERRIES,CRANBERRIES,Restaurant,601 PARLIAMENT ST,43.667862,-79.369286,Pass,3,,2017-07-19,,,,
1702,9002820,104058221,CHIADO RESTAURANT,CHIADO RESTAURANT,Restaurant,864 COLLEGE ST,43.6541,-79.42409,Pass,2,,2017-09-21,,,,
1706,9002826,103985424,CHICAGO DELICATESEN AND BAKERY STORE,CHICAGO DELICATESEN AND BAKERY STORE,Food Take Out,289 RONCESVALLES AVE,43.647717,-79.449455,Pass,3,Operator fail to properly wash equipment,2017-07-06,M - Minor,Notice to Comply,,
1727,9002842,103952493,CHICK-N-JOY TAKE OUT,CHICK-N-JOY TAKE OUT,Food Take Out,4449 KINGSTON RD,43.76927468,-79.18768242,Pass,2,,2017-04-20,,,,
1731,9002843,103985486,CHICK-N-JOY,CHICK-N-JOY,Food Take Out,1483 QUEEN ST E,43.66510139,-79.32136443,Pass,2,,2017-06-07,,,,
1735,9002851,103935836,NETWORK CHILD CARE SERVICES,NETWORK CHILD CARE SERVICES,Child Care - Catered,756 OSSINGTON AVE,43.66263264,-79.42622132,Pass,3,Operator fail to properly maintain rooms,2017-04-28,M - Minor,Notice to Comply,,
1740,9002852,103981885,CHILDSPACE DAY CARE,CHILDSPACE DAY CARE,Child Care - Catered,690 CARLAW AVE,43.67735609,-79.34728806,Pass,3,Operator fail to properly maintain rooms,2017-06-02,M - Minor,Notice to Comply,,
1745,9002853,103994899,CHILDSPACE DAY CARE CORPORATION,CHILDSPACE DAY CARE CORPORATION,Child Care - Catered,50 WOODMOUNT AVE,43.68695754,-79.31690251,Pass,2,,2017-06-20,,,,
1749,9002857,104025716,CHILDREN'S CIRCLE OF ST. BARNABAS,CHILDREN'S CIRCLE OF ST. BARNABAS,Child Care - Food Preparation,175 HAMPTON AVE,43.67708327,-79.35219259,Pass,3,OPERATOR FAIL TO ENSURE COVER WILL PREVENT CONTAMINATION OR ADULTERATION O. REG  562/90 SEC. 59(C)(II),2017-08-03,S - Significant,Corrected During Inspection,,
1756,9002861,103971601,CHILDREN'S CREATIVE CORNER CO-OP SCHOOL,CHILDREN'S CREATIVE CORNER CO-OP SCHOOL,Child Care - Catered,125 EVELYN CRES,43.65710007,-79.47458478,Pass,2,,2017-05-18,,,,
1758,9002862,103951477,CHILDRENS PRIMARY CENTRE,CHILDRENS PRIMARY CENTRE,Child Care - Food Preparation,177 BEVERLEY ST,43.65557777,-79.39425109,Pass,3,,2017-04-19,,,,
1764,9002863,103953731,CHILDREN'S VILLAGE DAY CARE,CHILDREN'S VILLAGE DAY CARE,Child Care - Food Preparation,1050 MARKHAM RD,43.77437348,-79.23157073,Pass,3,,2017-04-24,,,,
1770,9002864,103950219,CHILDREN'S VILLAGE DAY CARE CENTRE #3,CHILDREN'S VILLAGE DAY CARE CENTRE #3,Child Care - Food Preparation,225 MARKHAM RD,43.74619011,-79.21907657,Pass,3,,2017-04-18,,,,
1777,9002870,103932843,CHINA CHINA EXPRESS,CHINA CHINA EXPRESS,Food Take Out,2145 WESTON RD,43.7029639,-79.52460362,Pass,2,,2017-04-12,,,,
1780,9002871,104006512,CHINA CHINA EXPRESS,CHINA CHINA EXPRESS,Food Take Out,2836 VICTORIA PARK AVE,43.788118,-79.32944078,Pass,2,,2017-07-07,,,,
1784,9002879,103994944,CHINA GOURMET,CHINA GOURMET,Restaurant,877 YORK MILLS RD,43.75501277,-79.34877233,Pass,3,Operator fail to properly maintain equipment(NON-FOOD),2017-06-20,M - Minor,Notice to Comply,,
1802,9002883,103991867,CHINA KING,CHINA KING,Food Court Vendor,444 YONGE ST,43.6606165,-79.38403538,Pass,2,FAIL TO STORE FOOD ON RACKS OR SHELVES O. REG  562/90 SEC. 23,2017-06-15,S - Significant,Corrected During Inspection,,
1814,9002886,104102125,CHINA WOK,CHINA WOK,Food Court Vendor,243 BAY ST,43.64843,-79.38064,Pass,3,FAIL TO HAVE TEST REAGENT AVAILABLE AT  PLACE OF SANITIZATION O. REG  562/90 SEC. 75(2),2017-11-30,S - Significant,Corrected During Inspection,,
1829,9002887,104007940,CHINA WOK SUPERB CHINESE FOOD,CHINA WOK SUPERB CHINESE FOOD,Food Court Vendor,1 YORK GATE BLVD,43.75850714,-79.51944263,Pass,2,Operator fail to properly wash equipment,2017-07-12,M - Minor,Notice to Comply,,
1832,9002896,104255975,CHIOVITTI BANANA CO. LTD,CHIOVITTI BANANA CO. LTD,Food Depot,165 THE QUEENSWAY,43.6288,-79.486015,Pass,1,,2018-07-04,,,,
1833,9002897,104124734,CHIOVITTI BANANAS,CHIOVITTI BANANAS,Food Depot,26 MAGNIFICENT RD,43.61222992,-79.51234292,Pass,1,,2018-01-19,,,,
1834,9002909,103990332,CHOICE CHILDREN'S CATERING,CHOICE CHILDREN'S CATERING,Commissary,103 MANVILLE RD,43.72143291,-79.28093682,Pass,2,FAIL TO HAVE TEST REAGENT AVAILABLE AT  PLACE OF SANITIZATION O. REG  562/90 SEC. 75(2),2017-06-13,S - Significant,Corrected During Inspection,,
1840,9002913,103966077,CHOICES,CHOICES,Cafeteria - Public Access,200 BLOOR ST E,43.67246092,-79.38231934,Pass,3,OPERATOR FAIL TO ENSURE SINGLE-SERVICE ARTICLES KEPT IN MANNER PREVENTING CONTAMINATION O. REG  562/90 SEC. 59(D),2017-05-10,S - Significant,Corrected During Inspection,,
1849,9002928,104068224,CHOPSTICKS SZECHUAN,CHOPSTICKS SZECHUAN,Restaurant,1163 ELLESMERE RD,43.76784017,-79.27054689,Pass,2,,2017-10-05,,,,
1852,9002934,103971119,CHOU'S GARDEN RESTAURANT,CHOU'S GARDEN RESTAURANT,Restaurant,30 DEAN PARK RD,43.80354953,-79.1694266,Pass,3,FAIL TO PROVIDE SOAP OR DETERGENT IN FOOD PREPARATION AREA O. REG  562/90 SEC. 20(1)(C),2017-05-17,S - Significant,Corrected During Inspection,,
1865,9002937,104154975,CHRIS COFFEE SHOP,CHRIS COFFEE SHOP,Food Take Out,1 VALLEYBROOK DR,43.75853104,-79.35333824,Pass,2,Operator fail to properly wash surfaces in rooms,2018-02-21,M - Minor,Notice to Comply,,
1866,9002952,104027331,CHRISTIAN COMMUNITY CENTRE DAY CARE,CHRISTIAN COMMUNITY CENTRE DAY CARE,Child Care - Catered,270 GERRARD ST E,43.66209,-79.36828,Pass,3,,2017-08-09,,,,
1870,9002956,103958535,CHRISTIE GARDENS,CHRISTIE GARDENS,Retirement Homes(Licensed),600 MELITA CRES,43.67318983,-79.42269309,Pass,3,,2017-04-28,,,,
1877,9002973,104092260,CHUCK E CHEESE'S,CHUCK E CHEESE'S,Restaurant,2450 SHEPPARD AVE E,43.7748999,-79.32625183,Pass,2,Operator fail to properly wash surfaces in rooms,2017-11-14,M - Minor,Notice to Comply,,
1888,9002983,103977546,CHUNG MOI RESTAURANT,CHUNG MOI RESTAURANT,Restaurant,2412 EGLINTON AVE E,43.7324495,-79.26947979,Pass,2,Operator fail to properly wash surfaces in rooms,2017-05-29,M - Minor,Notice to Comply,,
1897,9002993,103988245,CHURCH ST SCHOOL DAY CARE,CHURCH ST SCHOOL DAY CARE,Child Care - Catered,83 ALEXANDER ST,43.66361701,-79.3791814,Pass,3,,2017-06-15,,,,
1904,9002996,103974396,CHURRASCO OF ST LAWRENCE,CHURRASCO OF ST LAWRENCE,Food Take Out,91 FRONT ST E,43.649075,-79.37213,Pass,1,Operator fail to properly wash equipment,2017-05-24,M - Minor,Notice to Comply,,
1910,9002998,104106583,BEIRA MAR RESTAURANT & SPORTS BAR,BEIRA MAR RESTAURANT & SPORTS BAR,Restaurant,995 WESTON RD,43.684647,-79.48463,Pass,2,,2017-12-07,,,,
1912,9003000,104078746,CHURRASQUEIRA COSTA VERDE,CHURRASQUEIRA COSTA VERDE,Restaurant,370 OAKWOOD AVE,43.68732544,-79.4390754,Conditional Pass,2,Operator fail to maintain hazardous food(s) at 4C (40F) or colder.,2017-10-24,C - Crucial,Notice to Comply,,
1925,9003006,103949628,CHURRASQUEIRA VILA VERDE,CHURRASQUEIRA VILA VERDE,Restaurant,869 DUNDAS ST W,43.651447,-79.41024,Conditional Pass,3,Fail to Hold a Valid Food Handler's Certificate. Muncipal Code Chapter 545-157(17)(b),2017-04-13,NA - Not Applicable,Notice to Comply,,
1952,9003010,103950862,CIBC - LUNCH ROOM,CIBC - LUNCH ROOM,Cafeteria,750 LAWRENCE AVE W,43.7151986,-79.4484338,Pass,2,OPERATE FOOD PREMISE - WASH WATER TEMPERATURE THERMOMETER NOT EASILY READABLE O. REG  562/90 SEC. 77(B),2017-04-18,S - Significant,Corrected During Inspection,,
1958,9003012,104035741,CIDER BAR - CENTRE ISLAND,CIDER BAR - CENTRE ISLAND,Food Take Out,1 CENTRE ISLAND PK,43.61522378,-79.37727872,Pass,2,,2017-08-17,,,,
1960,9003026,104085560,CINEPLEX ODEON VARSITY CINEMAS CONC #2,CINEPLEX ODEON VARSITY CINEMAS CONC #2,Food Take Out,55 BLOOR ST W,43.66964117,-79.38868796,Pass,2,OPERATE FOOD PREMISE-MECHANICAL EQUIPMENT NOT MAINTAINED TO PROVIDE SUFFICIENT CHEMICAL SOLUTION RINSE O. REG  562/90 SEC. 77(A)(II)(B),2017-11-02,S - Significant,Corrected During Inspection,,
1963,9003031,103994901,CINNABON,CINNABON,Restaurant,2200 YONGE ST,43.70604107,-79.39855132,Pass,2,RINSE LARGE UTENSIL WITH CHEMICAL SOLUTION AT LESS THAN DOUBLE STRENGTH O. REG  562/90 SEC. 82(B),2017-06-20,S - Significant,Corrected During Inspection,,
1967,9003052,104063917,CITY ADULT LEARNING CENTRE,CITY ADULT LEARNING CENTRE,Cafeteria,1 DANFORTH AVE,43.67491945,-79.3600608,Pass,1,,2017-09-29,,,,
1968,9003063,104054096,CITY FISH MARKET,CITY FISH MARKET,Fish Shop,2929 DUFFERIN ST,43.70914271,-79.45333889,Pass,2,OPERATOR FAIL TO ENSURE WRAPPING WILL PREVENT CONTAMINATION OR ADULTERATION O. REG  562/90 SEC. 59(C)(II),2017-09-19,S - Significant,Corrected During Inspection,,
1973,9003090,104310895,CLARKES,CLARKES,Food Store (Convenience / Variety),2235 SHEPPARD AVE E,43.77273326,-79.32785619,Pass,1,,2018-09-24,,,,
1974,9003106,104149135,CLIFFSIDE MILK,CLIFFSIDE MILK,Food Store (Convenience / Variety),2369 KINGSTON RD,43.70769939,-79.25004971,Pass,1,FAIL TO PROVIDE THERMOMETER IN TEMPERATURE CONTROLLED ROOM O. REG  562/90 SEC. 21,2018-02-16,S - Significant,Corrected During Inspection,,
1976,9003108,104053816,CLIFFWOOD COMMUNITY CHILD CARE ( Daycare + Before & After School program ),CLIFFWOOD COMMUNITY CHILD CARE ( Daycare + Before & After School program ),Child Care - Catered,140 CLIFFWOOD RD,43.8063007,-79.36007184,Pass,2,Operator fail to properly wash equipment,2017-09-15,M - Minor,Notice to Comply,,
1979,9003132,103988678,CLUB PARADISE,CLUB PARADISE,Restaurant,1313 BLOOR ST W,43.658054,-79.44381,Pass,3,Operator fail to properly maintain equipment(NON-FOOD),2017-06-20,M - Minor,Notice to Comply,,
1982,9003137,104009674,360 RESTAURANT,360 RESTAURANT,Restaurant,301 FRONT ST W,43.64372,-79.388435,Pass,3,FAIL TO USE UTENSILS TO AVOID HAND CONTACT WITH FOOD O. REG  562/90 SEC. 24,2017-07-12,S - Significant,Corrected During Inspection,,
1988,9003141,103933647,CENTRE FOR EARLY CHILDHOOD EDUCATION,CENTRE FOR EARLY CHILDHOOD EDUCATION,Child Care - Food Preparation,45 GOLFDOWN DR,43.72223589,-79.55211708,Pass,3,,2017-04-18,,,,
1995,9003142,104030023,COACH HOUSE RESTAURANT,COACH HOUSE RESTAURANT,Restaurant,574 YONGE ST,43.66505374,-79.38486799,Pass,2,,2017-08-11,,,,
2000,9003184,104124479,COFFEE DOME DONUTS,COFFEE DOME DONUTS,Restaurant,2223 KINGSTON RD,43.70414362,-79.25221588,Pass,2,,2018-01-10,,,,
2004,9003209,104025569,MULLINS IRISH PUB,MULLINS IRISH PUB,Restaurant,1033 BAY ST,43.66615914,-79.38740911,Pass,2,Operator fail to ensure floor of food-handling room kept clean O. Reg  562/90 Sec. 59(h),2017-08-03,M - Minor,Ticket,Conviction - Fined,60
2016,9003274,104095230,Coffee Time,COFFEE TIME DONUTS,Restaurant,124 BELFIELD RD,43.70315033,-79.57465726,Pass,2,,2017-11-24,,,,
2019,9003283,104095422,Coffee Time,COFFEE TIME DONUTS,Restaurant,215 CARLINGVIEW DR,43.6834672,-79.59245663,Pass,2,,2017-11-27,,,,
2021,9003409,104255682,COLD STORAGE BLOCK,COLD STORAGE BLOCK,Food Depot,165 THE QUEENSWAY,43.6288,-79.486015,Pass,1,,2018-07-04,,,,
2022,9003428,103951791,UNIVERSITY OF TORONTO BANQUET,UNIVERSITY OF TORONTO BANQUET,Restaurant,89 CHESTNUT ST,43.65424773,-79.38522658,Pass,3,,2017-04-19,,,,
2030,9003452,104105731,COMMERCIAL BAKERIES,COMMERCIAL BAKERIES,Bakery,45 TORBARRIE RD,43.72239088,-79.52172543,Pass,1,,2017-12-06,,,,
2031,9003477,103945911,SCOTIABANK ARENA  STAND#15 - SORTA SHAWARMA,SCOTIABANK ARENA  STAND#15 - SORTA SHAWARMA,Food Take Out,40 BAY ST,43.64407,-79.37843,Pass,2,,2017-04-07,,,,
2035,9003478,104073113,CONCORD GINSENG & HERBS,CONCORD GINSENG & HERBS,Food Store (Convenience / Variety),4400 SHEPPARD AVE E,43.78788704,-79.26987734,Pass,1,,2017-10-18,,,,
2036,9003510,104244461,CONTINENTAL NOODLES,CONTINENTAL NOODLES,Food Processing Plant,1664 JANE ST,43.70202413,-79.50395128,Pass,1,,2018-06-19,,,,
2037,9003524,104420052,HUMBERTOWN CONVENIENCE STORE,HUMBERTOWN CONVENIENCE STORE,Food Store (Convenience / Variety),270 THE KINGSWAY,43.662712,-79.519554,Pass,1,,2019-03-01,,,,
2038,9003536,104003054,COPERNICUS LODGE,COPERNICUS LODGE,Nursing Home / Home for the Aged,66 RONCESVALLES AVE,43.64019946,-79.44730758,Pass,3,,2017-07-06,,,,
2044,9003542,103990949,COPPI RISTORANTE,COPPI RISTORANTE,Restaurant,3363 YONGE ST,43.7316854,-79.403564,Pass,2,,2017-06-14,,,,
2045,9003546,104041385,CORAL SEA FISH SHOP,CORAL SEA FISH SHOP,Fish Shop,198 BALDWIN ST,43.65468,-79.40148,Pass,2,Operator fail to properly wash surfaces in rooms,2017-08-28,M - Minor,Notice to Comply,,
2049,9003564,104107219,CORNELL JUNIOR P.S.SNACK PROGRAM,CORNELL JUNIOR P.S.SNACK PROGRAM,School Nourishment Program,61 HOLMFIRTH TER,43.75940118,-79.21804141,Pass,1,,2017-12-08,,,,
2050,9003583,104081809,CORVETTE JR. P.S. SNACK PROGRAM,CORVETTE JR. P.S. SNACK PROGRAM,School Nourishment Program,30 CORVETTE AVE,43.72649371,-79.26216292,Pass,1,,2017-10-26,,,,
2052,9003588,104070594,COSBURN MIDDLE SCHOOL,COSBURN MIDDLE SCHOOL,Cafeteria - Public Access,520 COSBURN AVE,43.69376011,-79.33093166,Pass,2,,2017-10-11,,,,
2055,9003598,104013444,COSTCO,COSTCO,Supermarket,1411 WARDEN AVE,43.75965769,-79.29774235,Pass,2,,2017-07-18,,,,
2057,9003605,103992412,COTTINGHAM CHILD CARE CENTRE,COTTINGHAM CHILD CARE CENTRE,Child Care - Catered,85 BIRCH AVE,43.68038802,-79.39561225,Pass,3,,2017-06-15,,,,
2062,9003694,103954147,COURTLEIGH CHILD CARE CENTRE,COURTLEIGH CHILD CARE CENTRE,Child Care - Food Preparation,135 FENELON DR,43.76283883,-79.33794868,Pass,3,FAIL TO PROVIDE THERMOMETER IN STORAGE COMPARTMENT O. REG  562/90 SEC. 21,2017-04-24,S - Significant,Corrected During Inspection,,
2071,9003700,104071710,COXWELL CHILD CARE CENTER,COXWELL CHILD CARE CENTER,Child Care - Food Preparation,1631 QUEEN ST E,43.6663093,-79.31558008,Conditional Pass,2,Operator fail to provide adequate pest control,2017-10-12,S - Significant,Notice to Comply,,
2075,9003710,104024062,CRAIGLEE NURSING HOME,CRAIGLEE NURSING HOME,Nursing Home / Home for the Aged,102 CRAIGLEE DR,43.7069108,-79.25307464,Pass,3,,2017-08-01,,,,
2086,9003712,104362858,CRAWFORD ADVENTIST ACADEMY CAFE,CRAWFORD ADVENTIST ACADEMY CAFE,Secondary School Food Services,531 FINCH AVE W,43.77174223,-79.44480498,Pass,2,FAIL TO ENSURE EQUIPMENT SURFACE SANITIZED AS NECESSARY - SEC. 22,2018-12-11,M - Minor,Notice to Comply,,
2088,9003730,104063247,CRESCENT TOWN DAY CARE,CRESCENT TOWN DAY CARE,Child Care - Food Preparation,2 THE MARKET PL,43.69552186,-79.29272012,Pass,2,,2017-09-28,,,,
2092,9003742,103958225,CROCODILE ROCK,CROCODILE ROCK,Restaurant,240 ADELAIDE ST W,43.648296,-79.388535,Pass,3,,2017-04-28,,,,
2108,9003772,104017501,CENTRE FOR ADDICTION AND MENTAL HEALTH,CENTRE FOR ADDICTION AND MENTAL HEALTH,Hospitals & Health Facilities,250 COLLEGE ST,43.658512,-79.398964,Pass,3,,2017-07-24,,,,
2113,9003798,104043647,CUMMER LODGE - KITCHEN,CUMMER LODGE - KITCHEN,Nursing Home / Home for the Aged,205 CUMMER AVE,43.78825844,-79.40751334,Pass,3,Operator fail to properly maintain rooms,2017-09-11,M - Minor,Notice to Comply,,
2128,9003804,104311152,CURVA NORD BAR,CURVA NORD BAR,Restaurant,772 WILSON AVE,43.73137145,-79.4647699,Pass,2,Fail to Ensure the Presence of the Holder of a Valid Food Handlers Certificate - Sec. 545- 157E(1 7)(a),2018-09-24,NA - Not Applicable,Notice to Comply,,
2130,9003827,104262966,J & S CONVENIENCE,J & S CONVENIENCE,Food Store (Convenience / Variety),184 CARLTON ST,43.66345,-79.37231,Pass,1,FOOD PREMISE NOT MAINTAINED WITH FOOD HANDLING ROOM IN SANITARY CONDITION - SEC. 7(1)(E),2018-07-16,M - Minor,Notice to Comply,,
2132,9003833,104061225,D & R WINGS RESTAURANT,D & R WINGS RESTAURANT,Restaurant,325 BAMBURGH CRCL,43.81506971,-79.32184888,Pass,2,Operator fail to properly maintain equipment,2017-09-26,S - Significant,Corrected During Inspection,,
2138,9003846,104014347,DA-MARIA RISTORANTE,DA-MARIA RISTORANTE,Restaurant,572 ST CLAIR AVE W,43.6826111,-79.42223672,Conditional Pass,2,Operator fail to properly maintain equipment(NON-FOOD),2017-07-19,M - Minor,Notice to Comply,,
2150,9003860,103962636,DAIKUANG WAH HERB MARKET,DAIKUANG WAH HERB MARKET,Food Store (Convenience / Variety),280 SPADINA AVE,43.652607,-79.398026,Pass,1,,2017-05-05,,,,
2152,9003866,103988676,DAILY FOOD MART,DAILY FOOD MART,Food Store (Convenience / Variety),8 PAILTON CRES,43.69800276,-79.39021793,Pass,1,Operator fail to clean washroom fixtures,2017-06-12,S - Significant,Corrected During Inspection,,
2153,9003878,103990783,DAIO SUSHI,DAIO SUSHI,Restaurant,45 CARLTON ST,43.66138667,-79.38043818,Conditional Pass,3,Fail to Produce Most Recent Food Safety Inspection Report(s). Muncipal Code Chapter 545-157(E)(5),2017-06-14,NA - Not Applicable,Notice to Comply,,
2177,9003881,104010235,FIDDLERS DELL BAR & GRILL,FIDDLERS DELL BAR & GRILL,Restaurant,781 ANNETTE ST,43.65815999,-79.48759514,Pass,2,,2017-07-13,,,,
2180,9003886,104153199,DAIRY MILK,DAIRY MILK,Food Store (Convenience / Variety),5064 DUNDAS ST W,43.64581603,-79.53197421,Pass,1,,2018-02-16,,,,
2182,9003887,103992014,Dairy Queen,DAIRY QUEEN,Restaurant,1040 BROADVIEW AVE,43.68422978,-79.35712105,Pass,2,,2017-06-15,,,,
2186,9003889,104039323,Dairy Queen,DAIRY QUEEN,Restaurant,2957 DUFFERIN ST,43.71003938,-79.45336226,Pass,2,Operator fail to properly wash equipment,2017-09-07,M - Minor,Notice to Comply,,
2195,9003890,103994857,Dairy Queen,DAIRY QUEEN,Restaurant,5449 DUNDAS ST W,43.633183,-79.54277,Pass,1,,2017-06-20,,,,
2196,9003891,104197200,Dairy Queen,DAIRY QUEEN,Restaurant,2916 EGLINTON AVE E,43.73961066,-79.23696154,Pass,2,,2018-04-13,,,,
2199,9003893,104384694,Dairy Queen,DAIRY QUEEN,Restaurant,1910 KENNEDY RD,43.76702792,-79.281713,Pass,1,,2019-01-08,,,,
2200,9003897,104041845,Dairy Queen,DAIRY QUEEN,Food Take Out,1420 SHEPPARD AVE W,43.74484463,-79.48742866,Pass,1,,2017-08-28,,,,
2203,9003898,104260320,Dairy Queen,DAIRY QUEEN,Food Take Out,626 SHEPPARD AVE W,43.75546226,-79.44024227,Pass,1,Operate food premise - equipment not constructed to permit maintenance in sanitary condition - Sec. 9,2018-07-11,M - Minor,Notice to Comply,,
2204,9003900,104044633,Dairy Queen,DAIRY QUEEN,Food Take Out,2538 WESTON RD,43.70899508,-79.53454632,Pass,2,Food handler fail to wear headgear,2017-08-31,M - Minor,Notice to Comply,,
2206,9003924,104362677,DAILY MART,DAILY MART,Food Store (Convenience / Variety),2875 LAWRENCE AVE E,43.753635,-79.253204,Pass,1,,2018-12-10,,,,
2207,9003963,103948511,DALEMOUNT CHILDCARE CENTRE,DALEMOUNT CHILDCARE CENTRE,Child Care - Catered,101 ENGLEMOUNT AVE,43.71318084,-79.43638524,Pass,2,,2017-04-13,,,,
2210,9003974,103989876,DANA HOSPITALITY,DANA HOSPITALITY APOTEX,Cafeteria,150 SIGNET DR,43.76417976,-79.54199973,Pass,2,,2017-06-13,,,,
2213,9003976,103992772,DANA HOSPITALITY,DANA HOSPITALITY,Cafeteria,4100 WESTON RD,43.76594052,-79.5459246,Pass,2,,2017-06-16,,,,
2216,9003977,104429845,DANA HOSPITALITY,DANA HOSPITALITY / TOYOTA CANADA,Cafeteria,1 TOYOTA PL,43.78206306,-79.24233249,Pass,2,,2019-03-15,,,,
2217,9003980,103954440,DANDYLION DAY CARE,DANDYLION DAY CARE,Child Care - Food Preparation,108 STRATHMORE BLVD,43.68178794,-79.33585782,Pass,3,Operator fail to properly wash surfaces in rooms,2017-04-24,M - Minor,Notice to Comply,,
2223,9003985,103945764,DANFORTH CHILDCARE CENTRE,DANFORTH CHILDCARE CENTRE,Child Care - Food Preparation,1125 DANFORTH AVE,43.68085017,-79.33381537,Pass,3,,2017-04-11,,,,
2229,9003988,104044362,DANFORTH DRAGON,DANFORTH DRAGON,Restaurant,861 DANFORTH AVE,43.6797052,-79.33975115,Pass,2,,2017-09-06,,,,
2233,9003999,104011274,DANFORTH VILLAGE,DANFORTH VILLAGE,Food Store (Convenience / Variety),2517 DANFORTH AVE,43.68779491,-79.30265323,Conditional Pass,1,Fail to remove wastes when necessary to maintain sanitary condition O. Reg  562/90 Sec. 57(1),2017-07-14,S - Significant,Ticket,Conviction - Fined,60
2239,9004000,103981863,DANIEL ET DANIEL CATERING,DANIEL ET DANIEL CATERING,Food Caterer,248 CARLTON ST,43.66425,-79.36813,Pass,3,Operator fail to properly maintain rooms,2017-06-02,M - Minor,Notice to Comply,,
2249,9004008,103952059,DANTE ALIGHIERI CAFETERIA & BREAKFAST PROGRAM,DANTE ALIGHIERI CAFETERIA & BREAKFAST PROGRAM,Cafeteria,60 PLAYFAIR AVE,43.71008601,-79.4583731,Pass,2,,2017-04-21,,,,
2253,9004016,104074351,THE DARK HORSE,THE DARK HORSE,Restaurant,2401 BLOOR ST W,43.64941398,-79.48306291,Pass,2,,2017-10-17,,,,
2256,9004025,103980963,DAVE YOUNG FRUIT MARKET,DAVE YOUNG FRUIT MARKET,Food Store (Convenience / Variety),494 EGLINTON AVE W,43.7100883,-79.3830163,Pass,2,FAIL TO PROVIDE THERMOMETER IN STORAGE COMPARTMENT O. REG  562/90 SEC. 21,2017-06-01,S - Significant,Corrected During Inspection,,
2264,9004028,104274287,DAVENPORT PHARMACY,DAVENPORT PHARMACY,Food Store (Convenience / Variety),219 DAVENPORT RD,43.67466228,-79.39527658,Pass,1,,2018-08-01,,,,
2265,9004029,103990836,DAVENPORT-PERTH CHILD CARE CENTRE,DAVENPORT-PERTH CHILD CARE CENTRE,Child Care - Food Preparation,1900 DAVENPORT RD,43.6709286,-79.45486185,Pass,2,,2017-06-14,,,,
2269,9004032,103991191,DAVID LEWIS JR YMCA,DAVID LEWIS JR YMCA,Child Care - Catered,130 FUNDY BAY BLVD,43.80920532,-79.31788929,Pass,2,,2017-06-14,,,,
2272,9004044,104025395,DOWNTOWN MONTESSORI (SIMCOE),DOWNTOWN MONTESSORI (SIMCOE),Child Care - Food Preparation,200 FRONT ST W,43.644608,-79.38601,Pass,3,,2017-08-01,,,,
2277,9004045,103842961,DAY CARE CONNECTIONS,DAY CARE CONNECTIONS,Child Care - Food Preparation,11 COATSWORTH CRES,43.6791497,-79.32109772,Pass,3,,2017-06-08,,,,
2281,9004046,103859338,DAY CARE CONNECTION - KIDS CLUB,DAY CARE CONNECTION - KIDS CLUB,Child Care - Catered,780 KINGSTON RD,43.68023297,-79.29457188,Pass,1,,2017-09-29,,,,
2283,9004063,104079401,DEARHAM WOOD DAYCARE CENTRE,DEARHAM WOOD DAYCARE CENTRE,Child Care - Catered,66 DEARHAM WOOD,43.75366906,-79.18748212,Pass,1,,2017-10-25,,,,
2285,9004073,103982440,DEEP SEA FISH IMPORTING & EXPORTING,DEEP SEA FISH IMPORTING & EXPORTING,Fish Shop,60 TORO RD,43.7608172,-79.48682684,Pass,2,Operator fail to properly wash surfaces in rooms,2017-06-02,M - Minor,Notice to Comply,,
2288,9004075,103952351,DEER PARK EXTENDED PRIMARY EDUCATION PROGRAM,DEER PARK EXTENDED PRIMARY EDUCATION PROGRAM,Child Care - Catered,23 FERNDALE AVE,43.68966054,-79.39155962,Pass,3,,2017-04-20,,,,
2295,9004117,104058855,PETER G'S BAR & GRILL,PETER G'S BAR & GRILL,Restaurant,1060 WILSON AVE,43.72844139,-79.47997091,Pass,3,FAIL TO PROVIDE THERMOMETER IN STORAGE COMPARTMENT O. REG  562/90 SEC. 21,2017-09-21,S - Significant,Corrected During Inspection,,
2308,9004118,104229904,DEL'S PASTRY LTD.,DEL'S PASTRY LTD.,Bakery,344 BERING AVE,43.63775113,-79.52995862,Pass,2,Operator fail to properly wash equipment,2018-05-29,M - Minor,Notice to Comply,,
2311,9004120,103979820,DELTA BINGO,DELTA BINGO,Restaurant,1799 ST CLAIR AVE W,43.67281019,-79.463786,Pass,2,,2017-05-31,,,,
2316,9004131,103947030,DELTA SPORTS BAR,DELTA SPORTS BAR,Restaurant,247 OSSINGTON AVE,43.64972,-79.42076,Pass,2,Operator fail to properly maintain rooms,2017-04-10,M - Minor,Notice to Comply,,
2321,9004135,104027147,DEMENZ,DEMENZ,Food Depot,65 UNDERWRITERS RD,43.74587415,-79.28668932,Pass,1,,2017-08-08,,,,
2322,9004174,104092149,DI LISO'S FINE MEATS,DI LISO'S FINE MEATS,Butcher Shop,91 FRONT ST E,43.649075,-79.37213,Pass,2,FAIL TO HAVE TEST REAGENT AVAILABLE AT  PLACE OF SANITIZATION O. REG  562/90 SEC. 75(2),2017-11-14,S - Significant,Corrected During Inspection,,
2327,9004181,104095512,DIABOLO'S COFFEE BAR,DIABOLO'S COFFEE BAR,Restaurant,15 KINGS COLLEGE CRCL,43.662647,-79.3954,Pass,2,Operator fail to properly maintain rooms,2017-11-24,M - Minor,Notice to Comply,,
2329,9004191,104036827,DIANA MEAT & GROCERY,DIANA MEAT & GROCERY,Supermarket,1299 ST CLAIR AVE W,43.67656488,-79.44832766,Pass,1,,2017-08-22,,,,
2331,9004195,104215692,DIANA'S SEAFOOD DELIGHTS,DIANA'S SEAFOOD DELIGHTS,Food Processing Plant,2101 LAWRENCE AVE E,43.74548366,-79.29154326,Pass,1,Operator fail to properly maintain equipment(NON-FOOD),2018-05-09,M - Minor,Notice to Comply,,
2334,9004210,103976483,CANOSA BAKERY LTD.,CANOSA BAKERY LTD.,Restaurant,21 ROYALCREST RD,43.7499175,-79.60802585,Pass,2,,2017-04-19,,,,
2341,9004213,103971963,DIMITRI'S PLACE,DIMITRI'S PLACE,Restaurant,3031 LAKE SHORE BLVD W,43.59973321,-79.50894074,Pass,2,,2017-05-18,,,,
2346,9004214,104006855,DIMMI BAR & TRATTORIA,DIMMI BAR & TRATTORIA,Restaurant,140 CUMBERLAND ST,43.67017557,-79.39274119,Pass,2,,2017-07-07,,,,
2349,9004215,104044009,DIMPFLMEIER BAKERY LIMITED,DIMPFLMEIER BAKERY LIMITED,Bakery,26 ADVANCE RD,43.63393629,-79.52970413,Pass,2,,2017-08-25,,,,
2352,9004228,104006417,THE BOULEVARD CLUB (MAIN KITCHEN),THE BOULEVARD CLUB (MAIN KITCHEN),Private Club,1491 LAKE SHORE BLVD W,43.6355183,-79.44418227,Pass,3,,2017-07-07,,,,
2365,9004257,103868576,DIXON HALL,DIXON HALL,Serving Kitchen,58 SUMACH ST,43.65620119,-79.35893591,Pass,3,FAIL TO HAVE TEST REAGENT AVAILABLE AT  PLACE OF SANITIZATION O. REG  562/90 SEC. 75(2),2017-06-13,S - Significant,Corrected During Inspection,,
2371,9004260,104002943,DIZZY DINGO,DIZZY DINGO,Restaurant,835 RUNNYMEDE RD,43.66991972,-79.48330301,Pass,2,,2017-06-28,,,,
2374,9004294,104123978,DOLLAR MAHAL PLUS CONVENIENCE,DOLLAR MAHAL PLUS CONVENIENCE,Food Store (Convenience / Variety),120 ERINGATE DR,43.66054237,-79.5822266,Pass,1,,2018-01-08,,,,
2375,9004298,104131219,DOLLAR CLUB,DOLLAR CLUB,Food Store (Convenience / Variety),877 ST CLAIR AVE W,43.67989384,-79.43329823,Pass,1,,2018-01-18,,,,
2376,9004309,103962166,Dollarama,DOLLARAMA,Food Store (Convenience / Variety),900 DUFFERIN ST,43.656017,-79.435234,Pass,1,,2017-05-04,,,,
2377,9004312,104255978,DOM AMODEO PRODUCE INC.,DOM AMODEO PRODUCE INC.,Food Depot,165 THE QUEENSWAY,43.6288,-79.486015,Pass,1,,2018-07-04,,,,
2378,9004313,104020547,DOM LIPA,DOM LIPA,Retirement Homes(Licensed),52 NEILSON DR,43.62916427,-79.56528345,Pass,3,FAIL TO STORE FOOD ON RACKS OR SHELVES O. REG  562/90 SEC. 23,2017-07-25,S - Significant,Corrected During Inspection,,
2384,9004314,103956739,DOMANI RESTAURANT,DOMANI RESTAURANT,Restaurant,335 RONCESVALLES AVE,43.649284,-79.45006,Pass,3,FAIL TO HAVE TEST REAGENT AVAILABLE AT  PLACE OF SANITIZATION O. REG  562/90 SEC. 75(2),2017-04-26,S - Significant,Corrected During Inspection,,
2393,9004376,104255983,DOMINION CITRUS COMPANY,DOMINION CITRUS COMPANY,Food Depot,165 THE QUEENSWAY,43.6288,-79.486015,Pass,1,,2018-07-04,,,,
2394,9004448,104021295,DOMINO FOODS LTD,DOMINO FOODS LTD,Food Store (Convenience / Variety),93 FRONT ST E,43.64905,-79.37177,Pass,1,OPERATOR FAIL TO ENSURE COVER WILL PREVENT CONTAMINATION OR ADULTERATION O. REG  562/90 SEC. 59(C)(II),2017-07-27,S - Significant,Corrected During Inspection,,
2396,9004451,103962033,DOMINO'S PIZZA,DOMINO'S PIZZA,Food Take Out,4679 KINGSTON RD,43.77580288,-79.17293561,Pass,1,Operator fail to properly maintain rooms,2017-05-04,M - Minor,Notice to Comply,,
2397,9004464,104066095,DOMINO'S PIZZA,DOMINO'S PIZZA,Food Take Out,447 PHARMACY AVE,43.70482984,-79.28825848,Pass,2,Operator fail to properly wash surfaces in rooms,2017-10-04,M - Minor,Notice to Comply,,
2401,9004465,103946885,DOMINO'S PIZZA,DOMINO'S PIZZA,Food Take Out,201 SHEPPARD AVE E,43.76391508,-79.39886912,Pass,1,,2017-04-10,,,,
2403,9004482,103999792,DON VALLEY CHRISTIAN CHILDCARE,DON VALLEY CHRISTIAN CHILDCARE,Child Care - Catered,25 AXSMITH CRES,43.78865896,-79.35219115,Pass,2,,2017-06-29,,,,
2406,9004500,103999814,DONLANDS CONVENIENCE,DONLANDS CONVENIENCE,Food Store (Convenience / Variety),363 DONLANDS AVE,43.69323113,-79.34216409,Pass,1,,2017-06-27,,,,
2408,9004505,104262857,DONLANDS VARIETY STORE,DONLANDS VARIETY STORE,Food Store (Convenience / Variety),4 DONLANDS AVE,43.68071087,-79.33759013,Pass,1,,2018-07-16,,,,
2409,9004519,104005789,DONUT COUNTER AND FAMOUS YOGURT,DONUT COUNTER AND FAMOUS YOGURT,Restaurant,3337 BAYVIEW AVE,43.79161337,-79.39302338,Pass,2,,2017-07-06,,,,
2412,9004549,104403445,DONWOOD VARIETY STORE,DONWOOD VARIETY STORE,Food Store (Convenience / Variety),67 UNDERHILL DR,43.74546917,-79.32559635,Pass,1,,2019-02-05,,,,
2413,9004558,104185010,DOSTANA GROCERS,DOSTANA GROCERS,Food Store (Convenience / Variety),38 REXDALE BLVD,43.71404613,-79.55865625,Pass,1,Operator fail to provide proper equipment,2018-03-26,M - Minor,Notice to Comply,,
2414,9004598,103965017,DOVER GARDENS NURSERY SCHOOL,DOVER GARDENS NURSERY SCHOOL,Child Care - Food Preparation,228 BARTLETT AVE,43.66674419,-79.43578221,Pass,2,,2017-05-11,,,,
2418,9004601,103960822,DOWLING REST HOME,DOWLING REST HOME,Retirement Homes(Licensed),124 DOWLING AVE,43.63690784,-79.43899975,Pass,3,,2017-05-03,,,,
2428,9004604,103952848,FLATIRON AND FIRKIN,FLATIRON AND FIRKIN,Restaurant,49 WELLINGTON ST E,43.648613,-79.37391,Pass,3,Operator fail to properly wash equipment,2017-04-21,M - Minor,Notice to Comply,,
2439,9004626,103976842,JAMAICAN-CANADIAN CUISINE,JAMAICAN-CANADIAN CUISINE,Food Court Vendor,8 WESTMORE DR,43.74226529,-79.60456566,Pass,2,Operator fail to properly maintain rooms,2017-05-28,M - Minor,Notice to Comply,,
2443,9004639,104061910,DRAGON HOUSE,DRAGON HOUSE,Restaurant,1019 WESTON RD,43.6850952,-79.4852793,Pass,2,,2017-10-13,,,,
2444,9004640,104239267,DRAGON HOUSE CHINESE FOOD,DRAGON HOUSE CHINESE FOOD,Food Take Out,243 SHEPPARD AVE E,43.76455355,-79.39615535,Pass,2,Operator fail to properly wash equipment,2018-06-11,M - Minor,Notice to Comply,,
2445,9004652,103968388,DR'S PAUL & JOHN REKAI CENTRE NURSING HOME,DR'S PAUL & JOHN REKAI CENTRE NURSING HOME,Nursing Home / Home for the Aged,345 SHERBOURNE ST,43.66270718,-79.3724265,Pass,3,Operator fail to properly maintain rooms,2017-05-15,M - Minor,Notice to Comply,,
2454,9004664,103970223,DRUXY'S FAMOUS DELI,DRUXY'S FAMOUS DELI,Restaurant,1 FRONT ST W,43.64637,-79.37706,Pass,2,,2017-05-16,,,,
2458,9004687,103985821,DRUXY'S FAMOUS DELI,DRUXY'S FAMOUS DELICATESSEN,Restaurant,123 EDWARD ST,43.65563759,-79.38680081,Pass,2,Operator fail to properly wash surfaces in rooms,2017-06-07,M - Minor,Notice to Comply,,
2468,9004693,104008124,DUBLIN HEIGHTS COMMUNITY CHILD CARE,DUBLIN HEIGHTS COMMUNITY CHILD CARE,Child Care - Catered,100 BAINBRIDGE AVE,43.74910529,-79.44772817,Conditional Pass,3,Operator fail to provide accurate indicating thermometer(s),2017-07-11,S - Significant,Notice to Comply,,
2478,9004699,103999419,LEN DUCKWORTH FISH & CHIPS,LEN DUCKWORTH FISH & CHIPS,Restaurant,2638 DANFORTH AVE,43.68882453,-79.29997969,Pass,1,Fail to Post Licence Adjacent to Food Safety Inspection Notice. Muncipal Code Chapter 545-157(E)(4),2017-06-26,NA - Not Applicable,Notice to Comply,,
2481,9004700,104124474,DUCKWORTH'S FISH 'N CHIPS,DUCKWORTH'S FISH 'N CHIPS,Restaurant,2282 KINGSTON RD,43.70542111,-79.25238564,Pass,2,Operator fail to properly maintain rooms,2018-01-11,M - Minor,Notice to Comply,,
2483,9004706,104102804,DUFFERIN LODGE,DUFFERIN LODGE,Boarding / Lodging Home - Kitchen,1725 DUFFERIN ST,43.67937527,-79.44332086,Pass,2,,2017-12-01,,,,
2486,9004707,104054098,DUFFERIN MEAT MARKET,DUFFERIN MEAT MARKET,Butcher Shop,2927 DUFFERIN ST,43.70906987,-79.45332228,Conditional Pass,2,Food handler fail to wear headgear,2017-09-19,M - Minor,Notice to Comply,,
2500,9004714,104047691,DUFFLET PASTRIES,DUFFLET PASTRIES,Restaurant,787 QUEEN ST W,43.646187,-79.40841,Pass,2,,2017-09-07,,,,
2504,9004715,103980920,DUFF'S FAMOUS WINGS,DUFF'S FAMOUS WINGS,Restaurant,1604 BAYVIEW AVE,43.70607606,-79.37562203,Pass,2,OPERATOR FAIL TO ENSURE SINGLE-SERVICE CONTAINERS KEPT IN MANNER PREVENTING CONTAMINATION O. REG  562/90 SEC. 59(D),2017-06-01,S - Significant,Corrected During Inspection,,
2511,9004718,103948336,DUKE OF CONNAUGHT SCHOOL,DUKE OF CONNAUGHT SCHOOL,School Nourishment Program,70 WOODFIELD RD,43.66640314,-79.32204622,Pass,2,,2017-04-12,,,,
2516,9004720,103959273,DUKE OF KENT,DUKE OF KENT,Restaurant,2315 YONGE ST,43.70793526,-79.39832902,Pass,2,Operator fail to properly wash equipment,2017-05-01,M - Minor,Notice to Comply,,
2522,9004721,104041039,DUKE OF RICHMOND,DUKE OF RICHMOND,Restaurant,20 QUEEN ST W,43.65237075,-79.38066463,Pass,2,,2017-08-25,,,,
2526,9004723,104033474,DUKE OF YORK RESTAURANT,DUKE OF YORK RESTAURANT,Restaurant,39 PRINCE ARTHUR AVE,43.669228,-79.39741,Pass,2,Operator fail to properly wash surfaces in rooms,2017-08-16,M - Minor,Notice to Comply,,
2532,9004724,104023559,THE DUKE LIVE,THE DUKE LIVE,Restaurant,1225 QUEEN ST E,43.66298507,-79.33049909,Pass,3,Operator fail to properly wash surfaces in rooms,2017-08-01,M - Minor,Notice to Comply,,
2540,9004730,104011654,DUNDAS PIZZA,DUNDAS PIZZA,Food Take Out,3088 DUNDAS ST W,43.66577203,-79.47274103,Pass,2,,2018-01-19,,,,
2542,9004733,103966067,DUNDAS STREET SUPERMARKET,DUNDAS STREET SUPERMARKET,Supermarket,878 DUNDAS ST W,43.651283,-79.411446,Pass,2,Operator fail to properly wash equipment,2017-05-10,M - Minor,Notice to Comply,,
2547,9004737,104102191,DUNDAS-SPADINA PHARMACY,DUNDAS-SPADINA PHARMACY,Food Store (Convenience / Variety),289 SPADINA AVE,43.653336,-79.39797,Pass,1,,2017-12-01,,,,
2548,9004744,103997445,DUNLACE CHILDREN'S CENTRE,DUNLACE CHILDREN'S CENTRE,Child Care - Catered,20 DUNLACE DR,43.76246803,-79.37036056,Pass,2,,2017-06-23,,,,
2552,9004746,103969674,DUNLOE CHILDREN CENTRE.,DUNLOE CHILDREN CENTRE.,Child Care - Food Preparation,78 DUNLOE RD,43.69540386,-79.41412725,Pass,2,,2017-05-16,,,,
2556,9004749,104178988,THO KHANG DUONG HERBAL,THO KHANG DUONG HERBAL,Food Store (Convenience / Variety),671 GERRARD ST E,43.6659748,-79.34955663,Pass,1,,2018-03-16,,,,
2557,9004792,103869512,EARL HAIG COMMUNITY DAY CARE,EARL HAIG COMMUNITY DAY CARE,Child Care - Catered,15 EARL HAIG AVE,43.68134004,-79.32125369,Pass,3,Operator fail to provide accurate indicating thermometer(s),2017-05-24,S - Significant,Corrected During Inspection,,
2561,9004798,103969654,EARLY ADVENTURES NURSERY,EARLY ADVENTURES NURSERY,Child Care - Catered,200 MELROSE ST,43.62064567,-79.49852269,Pass,2,,2017-05-16,,,,
2565,9004799,103936416,EARLY ENRICHMENT DAY CARE,EARLY ENRICHMENT DAY CARE,Child Care - Food Preparation,288 HUMBERSIDE AVE,43.66064871,-79.46919623,Pass,2,,2017-04-21,,,,
2570,9004814,104000549,EAST TORONTO VILLAGE CHILDREN'S CENTRE,EAST TORONTO VILLAGE CHILDREN'S CENTRE,Child Care - Food Preparation,43 KIMBERLEY AVE,43.68281928,-79.29770845,Pass,2,,2017-06-28,,,,
2574,9004817,104070723,EAST YORK COLLEGIATE,EAST YORK COLLEGIATE,Cafeteria - Public Access,650 COSBURN AVE,43.69451732,-79.32735655,Pass,2,Operator fail to properly maintain equipment(NON-FOOD),2017-10-11,M - Minor,Notice to Comply,,
2577,9004820,104001234,EASTCOASTERS RESTAURANT,EASTCOASTERS RESTAURANT,Restaurant,2861 KEELE ST,43.73265265,-79.48305399,Pass,2,FAIL TO PROVIDE TOWELS IN FOOD PREPARATION AREA O. REG  562/90 SEC. 20(1)(C),2017-06-28,S - Significant,Corrected During Inspection,,
2586,9004826,104062185,EAST SIDE CLUB,EAST SIDE CLUB,Child Care - Catered,100 GALLOWAY RD,43.75743706,-79.19334169,Pass,1,,2017-09-27,,,,
2588,9004827,103996933,EAST SIDE MARIO'S,EAST SIDE MARIO'S,Restaurant,12 LEBOVIC AVE,43.72394221,-79.29071719,Pass,2,,2017-06-22,,,,
2594,9004841,104045908,EASY RESTAURANT,EASY RESTAURANT,Restaurant,1645 QUEEN ST W,43.63874,-79.445656,Pass,2,Operator fail to properly maintain rooms,2017-09-05,M - Minor,Notice to Comply,,
2604,9004873,104034608,EDGELEY DAY CARE KITCHEN,EDGELEY DAY CARE KITCHEN,Child Care - Food Preparation,405 DRIFTWOOD AVE,43.76717478,-79.51607055,Pass,3,,2017-08-18,,,,
2610,9004875,104061080,EDIE'S PLACE BAR & CAFE,EDIE'S PLACE BAR & CAFE,Restaurant,2100 DANFORTH AVE,43.68611182,-79.31221471,Pass,2,Operator fail to properly wash surfaces in rooms,2017-09-25,M - Minor,Notice to Comply,,
2613,9004876,103969943,ST CLAIR DELI,ST CLAIR DELI,Food Take Out,748 ST CLAIR AVE W,43.68145431,-79.42810297,Pass,2,Operator fail to properly wash equipment,2017-05-16,M - Minor,Notice to Comply,,
2617,9004889,103945942,EDO SUSHI - 103,EDO SUSHI - 103,Food Take Out,40 BAY ST,43.64407,-79.37843,Pass,2,,2017-04-07,,,,
2622,9004891,104060483,EDUCARE KINDERGARTEN DAY CARE,EDUCARE KINDERGARTEN DAY CARE,Child Care - Food Preparation,2825 ISLINGTON AVE,43.74833611,-79.5674795,Pass,3,,2017-09-25,,,,
2627,9004904,103967894,EGLINTON SMOKE SHOP,EGLINTON SMOKE SHOP,Food Store (Convenience / Variety),150 EGLINTON AVE E,43.70790627,-79.39400679,Pass,1,,2017-05-12,,,,
2628,9004910,104023309,EHATARE HOME,EHATARE HOME,Retirement Homes(Licensed),40 OLD KINGSTON RD,43.77554999,-79.1831327,Pass,2,,2017-08-01,,,,
2634,9004912,103981273,EIN-STEIN CAFE & PUB,EIN-STEIN CAFE & PUB,Restaurant,229 COLLEGE ST,43.65826,-79.39751,Pass,3,,2017-06-01,,,,
2648,9004933,104000424,EL RANCHO RESTAURANT & TAVERN,EL RANCHO RESTAURANT & TAVERN,Restaurant,430 COLLEGE ST,43.65672,-79.40708,Pass,3,OPERATE FOOD PREMISE-MECHANICAL EQUIPMENT NOT MAINTAINED TO PROVIDE SUFFICIENT CHEMICAL SOLUTION RINSE O. REG  562/90 SEC. 77(A)(II)(B),2017-06-27,S - Significant,Corrected During Inspection,,
2653,9004934,103943140,EL SABIL RESTAURANT,EL SABIL RESTAURANT,Food Take Out,2680 LAWRENCE AVE E,43.75248055,-79.26219,Pass,2,,2017-04-21,,,,
2659,9004936,104021656,EL SOL,EL SOL,Restaurant,1448 DANFORTH AVE,43.68294736,-79.32651694,Pass,2,Operator fail to properly maintain rooms,2017-07-28,M - Minor,Notice to Comply,,
2661,9004937,104025870,EL TIPICO ECUATORIANO RESTAURANT,EL TIPICO ECUATORIANO RESTAURANT,Restaurant,2312 KEELE ST,43.70346737,-79.47721796,Pass,2,,2017-08-03,,,,
2667,9004951,104115186,ELGIN AND WINTER GARDEN THEATRES CENTRE,ELGIN AND WINTER GARDEN THEATRES CENTRE,Cocktail Bar / Beverage Room,189 YONGE ST,43.65306507,-79.37920381,Pass,1,,2017-12-21,,,,
2669,9004952,104134824,ELI LILLY CO,ELI LILLY CO,Cafeteria,3650 DANFORTH AVE,43.69792724,-79.26624737,Pass,2,,2018-02-09,,,,
2671,9004970,103996406,ELKHORN JR. Y. DAYCARE,ELKHORN JR. Y. DAYCARE,Child Care - Catered,10 ELKHORN DR,43.771224,-79.38006568,Pass,2,,2017-06-22,,,,
2672,9004972,104059674,ELLAS MEAT MARKET,ELLAS MEAT MARKET,Butcher Shop,674 PAPE AVE,43.67817782,-79.34483313,Pass,2,,2017-09-21,,,,
2675,9004995,103982806,EMA-TEI JAPANESE RESTAURANT,EMA-TEI JAPANESE RESTAURANT,Restaurant,30 ST PATRICK ST,43.650856,-79.38893,Pass,3,OPERATE FOOD PREMISE-MECHANICAL EQUIPMENT NOT MAINTAINED TO PROVIDE SUFFICIENT CHEMICAL SOLUTION RINSE O. REG  562/90 SEC. 77(A)(II)(B),2017-06-06,S - Significant,Corrected During Inspection,,
2691,9005000,104048240,EMBASSY RESTAURANT SAMOSA KING TAKE OUT,EMBASSY RESTAURANT SAMOSA KING TAKE OUT,Food Take Out,5210 FINCH AVE E,43.81040723,-79.25698143,Pass,2,FAIL TO STORE FOOD ON RACKS OR SHELVES O. REG  562/90 SEC. 23,2017-09-07,S - Significant,Corrected During Inspection,,
2699,9005007,103963343,EMERY CHILD CARE CENTRE,EMERY CHILD CARE CENTRE,Child Care - Catered,3395 WESTON RD,43.7487313,-79.53956027,Pass,2,,2017-05-11,,,,
2702,9005018,104114729,EMPORIO DE LOS SANDWICHES - BAKERY,EMPORIO DE LOS SANDWICHES - BAKERY,Bakery,894 WILSON AVE,43.73051297,-79.46899447,Pass,2,FAIL TO SANITIZE UTENSILS IN THIRD SINK O. REG  562/90 SEC. 74(C),2017-12-20,S - Significant,Corrected During Inspection,,
2709,9005019,104114732,EMPORIO DE LOS SANDWICHES - PREP CAKES,EMPORIO DE LOS SANDWICHES - PREP CAKES,Bake Shop,900 WILSON AVE,43.73038181,-79.46915383,Pass,2,Operator fail to properly wash equipment,2017-12-20,M - Minor,Notice to Comply,,
2714,9005022,103968739,EN VILLE EVENT DESIGN & CATERING,EN VILLE EVENT DESIGN & CATERING,Food Caterer,165 GEARY AVE,43.669848,-79.43622184,Pass,3,,2017-05-15,,,,
2720,9005034,103972400,ENRICHED CHILD CARE LEARNING CENTRE,ENRICHED CHILD CARE LEARNING CENTRE,Child Care - Catered,6030 BATHURST ST,43.78782263,-79.44758922,Pass,2,,2017-05-19,,,,
2727,9005045,103985750,ERAA SUPERMARKET,ERAA SUPERMARKET,Supermarket,2607 EGLINTON AVE E,43.73519685,-79.2527322,Pass,2,FAIL TO STORE FOOD ON RACKS OR SHELVES O. REG  562/90 SEC. 23,2017-06-07,S - Significant,Corrected During Inspection,,
2735,9005053,104044937,ERNIE BOCCIA CHILD CARE,ERNIE BOCCIA CHILD CARE,Child Care - Food Preparation,1 NORTHWESTERN AVE,43.69794532,-79.46978959,Pass,3,,2017-08-31,,,,
2742,9005068,104047887,ESPRESSO BAKERY & DELI,ESPRESSO BAKERY & DELI,Restaurant,4980 DUNDAS ST W,43.64734174,-79.53047135,Pass,2,,2017-09-07,,,,
